[{"_id":1,"nom":"Baie Comeau","url_golf":"http://golfbaiecomeau.ca/","points":25,"prive":false,"depuis":1993,"municipal":"Baie Comeau","url_ville":"http://ville.baie-comeau.qc.ca/","telephone":"418-295-1819","telephone2":"","telephone3":"","adresse":"1700, rue de Bretagne","codepostal2":"G5C 3S3","region":3,"codepostal":"G5C3S3","longitude":-68.259108,"latitude":49.204834},{"_id":3,"nom":"Chutes-aux-Outardes","url_golf":"http://golfchute-aux-outardes.com/accueil.aspx","points":0,"prive":false,"depuis":1954,"municipal":"Baie Comeau","url_ville":"http://ville.baie-comeau.qc.ca/","telephone":"418-567-2780","telephone2":"","telephone3":"","adresse":"Rue du Golf, Chutes-aux-Outardes","codepostal2":"G0H 1C0","region":3,"codepostal":"G0H1C0","longitude":-68.3971,"latitude":49.1305},{"_id":4,"nom":"Manoir Richelieu","url_golf":"http://www.manoirrichelieu.com/","points":85,"prive":false,"depuis":1925,"municipal":"Pointe-au-Pic","url_ville":"","telephone":"418-665-2526","telephone2":"800-665-8082","telephone3":"418-665-3703","adresse":"181 Richelieu, La Malbaie","codepostal2":"G5A 1X7","region":3,"codepostal":"G5A1X7","longitude":-70.152619,"latitude":47.6185},{"_id":5,"nom":"Murray Bay","url_golf":"http://www.golfmurraybay.com/","points":23,"prive":false,"depuis":1876,"municipal":"La Malbaie","url_ville":"http://www.lamalbaie.com/","telephone":"418-665-3682","telephone2":"","telephone3":"418-665-2494","adresse":"1013, chemin du Golf","codepostal2":"G5A 1H1","region":3,"codepostal":"G5A1H1","longitude":-70.157,"latitude":47.647686},{"_id":7,"nom":"Sainte-Marguerite","url_golf":"http://www.golfste-marguerite.qc.ca/","points":3,"prive":false,"depuis":1955,"municipal":"Sept-Iles","url_ville":"http://www.ville.sept-iles.qc.ca/","telephone":"418-583-2844","telephone2":"","telephone3":"","adresse":"19, rue Thom, Clarke City","codepostal2":"G4R 4K5","region":3,"codepostal":"G4R4K5","longitude":-66.618347,"latitude":50.169312},{"_id":8,"nom":"Sept-Iles","url_golf":"","points":0,"prive":false,"depuis":0,"municipal":"Sept-Iles","url_ville":"http://www.ville.sept-iles.qc.ca/","telephone":"418-968-9033","telephone2":"","telephone3":"","adresse":"784 rue Bourgeois","codepostal2":"G4R 3L6","region":3,"codepostal":"G4R3L6","longitude":-66.369095,"latitude":50.24},{"_id":9,"nom":"Tadoussac","url_golf":"http://www.hoteltadoussac.com/introfranc.html","points":7,"prive":false,"depuis":1902,"municipal":"Tadoussac","url_ville":"http://www.tadoussac.com/","telephone":"418-235-4306","telephone2":"","telephone3":"","adresse":"165, rue Bord de l'Eau","codepostal2":"G0T 2A0","region":3,"codepostal":"G0T2A0","longitude":-69.7082465,"latitude":48.14311},{"_id":11,"nom":"Baie St-Paul (le Loup)","url_golf":"http://www.golfbsp.com/","points":18,"prive":false,"depuis":1972,"municipal":"Baie St-Paul","url_ville":"","telephone":"418-435-2117","telephone2":"","telephone3":"","adresse":"40, chemin de l'Équerre","codepostal2":"G3Z 2Y7","region":3,"codepostal":"G3Z2Y7","longitude":-70.52868,"latitude":47.447},{"_id":20,"nom":"Acton Vale","url_golf":"http://golfactonvale.qc.ca/","points":126,"prive":false,"depuis":1963,"municipal":"Acton Vale","url_ville":"http://www.ville.actonvale.qc.ca/","telephone":"450-549-5885","telephone2":"","telephone3":"450-549-5885","adresse":"1000 Rte 116","codepostal2":"J0H 1A0","region":4,"codepostal":"J0H1A0","longitude":-72.60362,"latitude":45.6492},{"_id":23,"nom":"Bois-Francs","url_golf":"http://www.golfboisfrancs.com/","points":30,"prive":false,"depuis":1993,"municipal":"Princeville","url_ville":"","telephone":"866-664-7117","telephone2":"819-364-7117","telephone3":"819-364-7117","adresse":"25, rue du Lac Nord","codepostal2":"G6L 3X8","region":4,"codepostal":"G6L3X8","longitude":-71.93358,"latitude":46.2183},{"_id":24,"nom":"Canton","url_golf":"http://www.golfcanton.ca/","points":39,"prive":false,"depuis":1977,"municipal":"Warwick","url_ville":"","telephone":"888-287-2874","telephone2":"819-358-2874","telephone3":"819-358-6769","adresse":"5 Rte 116 Ouest","codepostal2":"J0A 1M0","region":4,"codepostal":"J0A1M0","longitude":-72.0055,"latitude":45.932915},{"_id":25,"nom":"Colonial","url_golf":"http://www.clubdegolfcolonial.com/","points":3,"prive":false,"depuis":0,"municipal":"Victoriaville","url_ville":"http://www.ville.victoriaville.qc.ca/","telephone":"819-752-7193","telephone2":"","telephone3":"819-752-7193","adresse":"1200 Bd Industriel O","codepostal2":"G6P 7E7","region":4,"codepostal":"G6P7E7","longitude":-72.0045,"latitude":46.05658},{"_id":26,"nom":"Cristal","url_golf":"http://www.cristal.qc.ca/","points":41,"prive":false,"depuis":1994,"municipal":"St-Rosaire","url_ville":"","telephone":"888-751-4646","telephone2":"","telephone3":"819-751-4653","adresse":"251, Route 162","codepostal2":"G0Z 1K0","region":4,"codepostal":"G0Z1K0","longitude":-71.988108,"latitude":46.179088},{"_id":27,"nom":"Drummond (Le)","url_golf":"http://www.clubdegolfledrummond.com/","points":18,"prive":false,"depuis":1993,"municipal":"St-Majorique","url_ville":"","telephone":"877-475-3660","telephone2":"819-475-3660","telephone3":"","adresse":"2164, boul. St-Joseph Ouest","codepostal2":"J2B 8A8","region":4,"codepostal":"J2B8A8","longitude":-72.6093,"latitude":45.9522},{"_id":28,"nom":"Drummondville","url_golf":"http://www.golfdrummond.com/","points":100,"prive":false,"depuis":1925,"municipal":"Drummondville","url_ville":"http://www.ville.drummondville.qc.ca/","telephone":"819-478-0484","telephone2":"","telephone3":"819-472-7093","adresse":"400, Chemin du golf","codepostal2":"J2B 6W3","region":4,"codepostal":"J2B6W3","longitude":-72.49955,"latitude":45.901776},{"_id":29,"nom":"Gentilly","url_golf":"http://www.golfgentilly.ca/","points":0,"prive":false,"depuis":1990,"municipal":"Bécancour","url_ville":"http://www.becancour.net/","telephone":"819-298-3131","telephone2":"","telephone3":"819-298-3131","adresse":"3625 des Albatros, Gentilly","codepostal2":"G9H 3Y2","region":4,"codepostal":"G9H3Y2","longitude":-72.27948,"latitude":46.3933},{"_id":30,"nom":"Godefroy","url_golf":"http://www.golfgodefroy.qc.ca/","points":16,"prive":false,"depuis":1974,"municipal":"St-Grégoire","url_ville":"","telephone":"819-233-2699","telephone2":"","telephone3":"819-233-2699","adresse":"17500 Bd Bécancour","codepostal2":"G9H1A4","region":4,"codepostal":"G9H1A4","longitude":-72.53969,"latitude":46.3046},{"_id":31,"nom":"Hériot","url_golf":"http://www.golf-heriot.com/","points":38,"prive":false,"depuis":1963,"municipal":"Drummondville","url_ville":"http://www.ville.drummondville.qc.ca/","telephone":"819- 398-5255","telephone2":"","telephone3":"819-398-7627","adresse":"4205, chemin Tourville, Saint-Nicéphore","codepostal2":"J2A 3Z1","region":4,"codepostal":"J2A3Z1","longitude":-72.445049,"latitude":45.803076},{"_id":32,"nom":"La-Fontaine","url_golf":"http://www.golflafontaine.com/","points":1,"prive":false,"depuis":0,"municipal":"Princeville","url_ville":"","telephone":"819-364-2178","telephone2":"","telephone3":"819-364-2178","adresse":"125, rue Grégoire","codepostal2":"G6L 3W6","region":4,"codepostal":"G6L3W6","longitude":-71.885455,"latitude":46.147997},{"_id":33,"nom":"Laurier","url_golf":"http://www.golflaurier.com/","points":15,"prive":false,"depuis":0,"municipal":"Princeville","url_ville":"","telephone":"819-364-7861","telephone2":"","telephone3":"","adresse":"651 12 Rg O","codepostal2":"G6P 2J8","region":4,"codepostal":"G6P2J8","longitude":-71.899,"latitude":46.11287},{"_id":34,"nom":"Plessisville","url_golf":"http://www.golfplessisville.com/","points":28,"prive":false,"depuis":1970,"municipal":"Plessisville","url_ville":"http://ville.plessisville.qc.ca/","telephone":"819-362-3387","telephone2":"","telephone3":"819-362-3387","adresse":"Route 116","codepostal2":"G6L 2Y2","region":4,"codepostal":"G6L2Y2","longitude":-71.722269,"latitude":46.262019},{"_id":35,"nom":"Providence (La)","url_golf":"http://www.golflaprovidence.com/","points":11,"prive":false,"depuis":1965,"municipal":"St-Hyacinthe","url_ville":"http://www.ville.st-hyacinthe.qc.ca/","telephone":"450-773-1234","telephone2":"450-467-7439","telephone3":"","adresse":"5055, rue Saint-Pierre Ouest, Case Postale 15, Saint-Hyacinthe,","codepostal2":"J2S 7B2","region":4,"codepostal":"J2S7B2","longitude":-72.965806,"latitude":45.5973},{"_id":36,"nom":"Saint-Hyacinthe","url_golf":"http://www.golfsthyacinthe.com/","points":"N/A","prive":true,"depuis":1929,"municipal":"St-Hyacinthe","url_ville":"http://www.ville.st-hyacinthe.qc.ca/","telephone":"450-773-8579","telephone2":"","telephone3":"","adresse":"3840, boul. Laurier Ouest, C.P. 53","codepostal2":"J2S 7B2","region":4,"codepostal":"J2S7B2","longitude":-72.9723,"latitude":45.61262},{"_id":37,"nom":"Saint-Simon","url_golf":"","points":0,"prive":false,"depuis":1963,"municipal":"St-Simon","url_ville":"","telephone":"450-798-2477","telephone2":"","telephone3":"","adresse":"1786 rang Saint-Édouard, Saint-Simon-de-Bagot,","codepostal2":"J0H 1Y0","region":4,"codepostal":"J0H1Y0","longitude":-72.81443,"latitude":45.6915},{"_id":38,"nom":"Victoriaville","url_golf":"http://www.golfvictoriaville.com/","points":69,"prive":false,"depuis":1961,"municipal":"Victoriaville","url_ville":"http://www.ville.victoriaville.qc.ca/","telephone":"819-752-2133","telephone2":"","telephone3":"819-752-4907","adresse":"223, rue Perreault","codepostal2":"G6P 6S8","region":4,"codepostal":"G6P6S8","longitude":-71.9454,"latitude":46.0416},{"_id":41,"nom":"Émeraude","url_golf":"","points":"E","prive":false,"depuis":0,"municipal":"Ste-Majorique","url_ville":"","telephone":"819-475-1177","telephone2":"","telephone3":"","adresse":"2064, boulevard Lemire, Drummondville","codepostal2":"J2B 6X5","region":4,"codepostal":"J2B6X5","longitude":-72.609844,"latitude":45.932647},{"_id":42,"nom":"Érables (des)","url_golf":"","points":"E","prive":false,"depuis":1973,"municipal":"Grantham Ouest","url_ville":"","telephone":"819-472-2939","telephone2":"","telephone3":"","adresse":"1600 Rang 5 W St, Drummondville","codepostal2":"J2B 8A9","region":4,"codepostal":"J2B8A9","longitude":-72.589245,"latitude":45.882958},{"_id":47,"nom":"Auberivière","url_golf":"http://www.golflauberiviere.com/","points":24,"prive":false,"depuis":1990,"municipal":"Lévis","url_ville":"http://www.ville.levis.qc.ca/","telephone":"418-835-0480","telephone2":"","telephone3":"418-835-0480","adresse":"777, rue Alexandre","codepostal2":"G6V 7M5","region":2,"codepostal":"G6V7M5","longitude":-71.188,"latitude":46.764},{"_id":48,"nom":"Beauce","url_golf":"http://www.golfdebeauce.com/","points":72,"prive":false,"depuis":1962,"municipal":"Ste-Marie-de-Beauce","url_ville":"http://www.ville.sainte-marie.qc.ca/","telephone":"418-387-5892","telephone2":"","telephone3":"418-387-5892","adresse":"1425 St Étienne N, Sainte-Marie","codepostal2":"G6E 1A1","region":2,"codepostal":"G6E1A1","longitude":-71.0721,"latitude":46.461334},{"_id":49,"nom":"Beauceville","url_golf":"http://www.golfbeauceville.net/","points":51,"prive":false,"depuis":1986,"municipal":"Beauceville","url_ville":"http://www.ville.beauceville.qc.ca/","telephone":"418-774-4653","telephone2":"","telephone3":"","adresse":"827 Chemin du Golf","codepostal2":"G5X 2T8","region":2,"codepostal":"G5X2T8","longitude":-70.762939,"latitude":46.262256},{"_id":50,"nom":"Beaurivage","url_golf":"http://www.centrehorizon.ca/golf.html","points":0,"prive":false,"depuis":1973,"municipal":"Lévis (St-Étienne-de-Lauzon)","url_ville":"http://www.ville.levis.qc.ca/","telephone":"418-831-9066","telephone2":"","telephone3":"","adresse":"162 Chemin St Gregoire","codepostal2":"G6J 1E8","region":2,"codepostal":"G6J1E8","longitude":-71.259899,"latitude":46.663693},{"_id":51,"nom":"Bellechasse","url_golf":"http://www.golfbellechasse.com/","points":117,"prive":false,"depuis":1985,"municipal":"St-Damien-de-Buckland","url_ville":"","telephone":"418-789-2008","telephone2":"","telephone3":"418-789-2008","adresse":"505 Rte 279 RR 2, Saint-Damien-de-Buckland","codepostal2":"G0R 2Y0","region":2,"codepostal":"G0R2Y0","longitude":-70.69976,"latitude":46.621501},{"_id":52,"nom":"Charny","url_golf":"http://www.golfcharny.com/","points":16,"prive":false,"depuis":1970,"municipal":"Lévis (Charny)","url_ville":"http://www.ville.levis.qc.ca/","telephone":"418-832-4432","telephone2":"","telephone3":"418-832-4432","adresse":"2441, avenue de la Rotonde, Charny","codepostal2":"G6X 2M2","region":2,"codepostal":"G6X2M2","longitude":-71.25784,"latitude":46.71193},{"_id":53,"nom":"Dorchester","url_golf":"http://www.golfdorchester.com/","points":28,"prive":false,"depuis":1970,"municipal":"Frampton","url_ville":"http://www.nouvellebeauce.com/municipalite/frampton/index_c.htm","telephone":"418-479-5589","telephone2":"","telephone3":"418-479-5589","adresse":"29 Rte 275 N","codepostal2":"G0R 1M0","region":2,"codepostal":"G0R1M0","longitude":-70.8328,"latitude":46.487993},{"_id":54,"nom":"Saint Benjamin","url_golf":"http://www.golfstbenjamin.com/","points":6,"prive":false,"depuis":1990,"municipal":"St-Benjamin","url_ville":"http://www.mrcetchemins.qc.ca/municipalite/s_benjamin.html","telephone":"418-594-5545","telephone2":"","telephone3":"","adresse":"490, rue du Lac, Saint-Benjamin","codepostal2":"G0M 1N0","region":2,"codepostal":"G0M1N0","longitude":-70.5959,"latitude":46.2731},{"_id":55,"nom":"Lac Etchemin","url_golf":"http://www.golflacetchemin.com/","points":62,"prive":false,"depuis":1969,"municipal":"Lac Etchemin","url_ville":"http://www.mrcetchemins.qc.ca/municipalite/l_etchemin.html","telephone":"418-625-2711","telephone2":"","telephone3":"","adresse":"355 du Golf CP 367","codepostal2":"G0R 1S0","region":2,"codepostal":"G0R1S0","longitude":-70.5232,"latitude":46.4217},{"_id":56,"nom":"Lévis","url_golf":"http://www.golflevis.com/","points":33,"prive":false,"depuis":1923,"municipal":"Lévis","url_ville":"http://www.ville.levis.qc.ca/","telephone":"418-837-2924","telephone2":"","telephone3":"418-837-3618","adresse":"6100 de la Rive Sud","codepostal2":"G6V 6R4","region":2,"codepostal":"G6V6R4","longitude":-71.167,"latitude":46.8},{"_id":57,"nom":"Lotbinière","url_golf":"http://www.golflotbiniere.com/","points":42,"prive":false,"depuis":1976,"municipal":"St-Gilles-de-Lotb.","url_ville":"","telephone":"418-651-3323","telephone2":"","telephone3":"418-888-4653","adresse":"169, route 269, Pointe St-Gilles","codepostal2":"G0S 2P0","region":2,"codepostal":"G0S2P0","longitude":-71.366269,"latitude":46.586564},{"_id":60,"nom":"Mont Adstock","url_golf":"http://www.mont-adstock.com/","points":57,"prive":false,"depuis":1976,"municipal":"Thedford Mines","url_ville":"","telephone":"418-422-2242","telephone2":"","telephone3":"418-422-2242","adresse":"120 Rte du Mont Adstock, Adstock","codepostal2":"G0N 1S0","region":2,"codepostal":"G0N1S0","longitude":-71.188488,"latitude":46.029508},{"_id":61,"nom":"Montmagny","url_golf":"http://www.golfmontmagny.com/","points":42,"prive":false,"depuis":1964,"municipal":"Montmagny","url_ville":"http://www.montmagny.com/","telephone":"888-290-1872","telephone2":"418-248-1872","telephone3":"888-290-1872","adresse":"473, ch. du Golf","codepostal2":"G5V 3E3","region":2,"codepostal":"G5V3E3","longitude":-70.495834,"latitude":46.964439},{"_id":62,"nom":"Saint-Georges","url_golf":"http://www.golfstgeorges.com/","points":45,"prive":false,"depuis":1959,"municipal":"St-Georges","url_ville":"http://www.ville.sg-bce.qc.ca/","telephone":"418-227-4653","telephone2":"","telephone3":"","adresse":"11450, 90e Rue, Casier Postal 123","codepostal2":"G5Y 5C4","region":2,"codepostal":"G5Y5C4","longitude":-70.609818,"latitude":46.193022},{"_id":63,"nom":"Saint-Michel","url_golf":"http://www.golfsaintmichel.com/","points":12,"prive":false,"depuis":1992,"municipal":"St-Michel-de-Bellechasse","url_ville":"http://www.beauxvillages.qc.ca/francais/villages/st_mich_bel.html","telephone":"418-884-3672","telephone2":"","telephone3":"","adresse":"333, chemin du Golf, C.P. 308","codepostal2":"G0R 3S0","region":2,"codepostal":"G0R3S0","longitude":-70.874348,"latitude":46.86324},{"_id":64,"nom":"Saint-Pamphile","url_golf":"http://www.golfstpamphile.com/","points":48,"prive":false,"depuis":1988,"municipal":"St-Pamphile","url_ville":"http://www.chaudiere-appalaches.gouv.qc.ca/repertoire/municipal/index_fr.htm","telephone":"418-356-3666","telephone2":"","telephone3":"","adresse":"321 Range des Pelletier","codepostal2":"G0R 3X0","region":2,"codepostal":"G0R3X0","longitude":-69.790049,"latitude":47.021871},{"_id":65,"nom":"Saint-Étienne","url_golf":"http://www.golfstetienne.com/","points":0,"prive":false,"depuis":1995,"municipal":"Lévis (St-Étienne-de-Lauzon)","url_ville":"http://www.ville.levis.qc.ca/","telephone":"418-836-5824","telephone2":"","telephone3":"","adresse":"822, rue Principale","codepostal2":"G6J 1A8","region":2,"codepostal":"G6J1A8","longitude":-71.325409,"latitude":46.646232},{"_id":66,"nom":"Stastny","url_golf":"http://www.golfhotelstastny.com/","points":5,"prive":false,"depuis":0,"municipal":"Lévis (St-Nicolas)","url_ville":"http://www.ville.levis.qc.ca/","telephone":"418-836-1259","telephone2":"","telephone3":"","adresse":"537, Marie Victorin","codepostal2":"G7A 2X6","region":2,"codepostal":"G7A2X6","longitude":-71.321127,"latitude":46.723535},{"_id":67,"nom":"Thetford","url_golf":"http://www.clubdegolfthetford.com/","points":30,"prive":false,"depuis":1926,"municipal":"Thedford Mines","url_ville":"","telephone":"418-335-2931","telephone2":"","telephone3":"418-335-2931","adresse":"1, rue du Golf","codepostal2":"G6G 7Z9","region":2,"codepostal":"G6G7Z9","longitude":-71.284393,"latitude":46.0954},{"_id":68,"nom":"Trois-Saumons","url_golf":"http://www.golf-trois-saumons.com/","points":48,"prive":false,"depuis":1981,"municipal":"St-Jean-Port-Joli","url_ville":"http://www.saintjeanportjoli.com/","telephone":"418-598-9719","telephone2":"","telephone3":"","adresse":"670, Chemin du golf","codepostal2":"G0R 3G0","region":2,"codepostal":"G0R3G0","longitude":-70.29456,"latitude":47.164859},{"_id":70,"nom":"Bellevue","url_golf":"","points":"E","prive":false,"depuis":0,"municipal":"St-Ephrem-de-Tring","url_ville":"","telephone":"418-484-5255","telephone2":"","telephone3":"418-484-5255","adresse":"625 Rte 271 S, Saint-Jacques-de-Leeds","codepostal2":"G0M 1R0","region":2,"codepostal":"G0M1R0","longitude":-70.9522,"latitude":46.062},{"_id":72,"nom":"Floral","url_golf":"","points":"E","prive":false,"depuis":0,"municipal":"St-Georges","url_ville":"http://www.ville.sg-bce.qc.ca/","telephone":"418-227-0054","telephone2":"","telephone3":"418-227-0054","adresse":"95 E, Saint-Georges","codepostal2":"G5Y 1A1","region":2,"codepostal":"G5Y1A1","longitude":-70.663408,"latitude":46.147603},{"_id":74,"nom":"ARCN","url_golf":"http://pwp.lino.com/jrichard/golf/","points":4,"prive":false,"depuis":1970,"municipal":"Senneterre","url_ville":"http://www.ville.senneterre.qc.ca/","telephone":"819-737-8949","telephone2":"","telephone3":"","adresse":"160 9e Rang, CP 38","codepostal2":"J0Y 2M0","region":1,"codepostal":"J0Y2M0","longitude":-77.259207,"latitude":48.399976},{"_id":75,"nom":"Beattie Duparquet","url_golf":"http://www.golflasarre.com/fr/index.cfm","points":11,"prive":false,"depuis":1935,"municipal":"Duparquet","url_ville":"http://www.chez.com/villeduparquet/","telephone":"819-948-2277","telephone2":"","telephone3":"","adresse":"102 Principale","codepostal2":"J0Z 1W0","region":1,"codepostal":"J0Z1W0","longitude":-79.23215,"latitude":48.50596},{"_id":76,"nom":"Beattie La Sarre","url_golf":"http://www.golflasarre.com/fr/index.cfm","points":1,"prive":false,"depuis":1988,"municipal":"La Sarre","url_ville":"http://www.ville.lasarre.qc.ca/","telephone":"819-333-5933","telephone2":"","telephone3":"819-333-9944","adresse":"18 ch du Golf","codepostal2":"J9Z 2X5","region":1,"codepostal":"J9Z2X5","longitude":-79.218206,"latitude":48.784586},{"_id":77,"nom":"Belvédère","url_golf":"http://golfbelvedere.com/","points":65,"prive":false,"depuis":1992,"municipal":"Val d'Or","url_ville":"http://www.mrcvo.qc.ca/","telephone":"819-824-4653","telephone2":"","telephone3":"819-824-4653","adresse":"360 boul Sabourin","codepostal2":"J9P 1W7","region":1,"codepostal":"J9P1W7","longitude":-77.799249,"latitude":48.087253},{"_id":78,"nom":"Dallaire (Municipal)","url_golf":"http://www.golfmunicipaldallaire.com/","points":20,"prive":false,"depuis":1972,"municipal":"Rouyn-Noranda","url_ville":"http://www.ville.rouyn-noranda.qc.ca/","telephone":"819-797-9444","telephone2":"","telephone3":"","adresse":"720 rue, Dallaire","codepostal2":"J9X 5C3","region":1,"codepostal":"J9X5C3","longitude":-79.02999,"latitude":48.226974},{"_id":79,"nom":"Malartic","url_golf":"http://www.golfmalartic.com/","points":1,"prive":false,"depuis":1964,"municipal":"Malartic","url_ville":"http://www.ville.malartic.qc.ca/","telephone":"819-757-3661","telephone2":"","telephone3":"819-757-3661","adresse":"301 Harricana","codepostal2":"J0Y 1Z0","region":1,"codepostal":"J0Y1Z0","longitude":-78.118892,"latitude":48.138422},{"_id":80,"nom":"Matagami","url_golf":"","points":1,"prive":false,"depuis":1970,"municipal":"Matagami","url_ville":"http://www.municipalite.baie-james.qc.ca/html/communautes15.htm","telephone":"819-739-4210","telephone2":"","telephone3":"819-739-4210","adresse":"45 ch du Lac","codepostal2":"J0Y 2A0","region":1,"codepostal":"J0Y2A0","longitude":-77.636433,"latitude":49.770955},{"_id":81,"nom":"Noranda","url_golf":"http://www.biblrn.qc.ca/golfnoranda/","points":9,"prive":false,"depuis":1935,"municipal":"Rouyn-Noranda","url_ville":"http://www.ville.rouyn-noranda.qc.ca/","telephone":"819-797-3377","telephone2":"","telephone3":"819-797-3311","adresse":"1 chemin du Golf","codepostal2":"J9X 5B1","region":1,"codepostal":"J9X5B1","longitude":-78.998051,"latitude":48.262113},{"_id":82,"nom":"Oiselet d'Amos","url_golf":"","points":3,"prive":false,"depuis":1963,"municipal":"Amos","url_ville":"http://www.ville.amos.qc.ca/","telephone":"819-732-5587","telephone2":"","telephone3":"819-732-5587","adresse":"1120 Rte 109 S","codepostal2":"J9T 3A7","region":1,"codepostal":"J9T3A7","longitude":-78.123779,"latitude":48.551217},{"_id":83,"nom":"Quévillon","url_golf":"","points":7,"prive":false,"depuis":0,"municipal":"Lebel-sur-Quévillon","url_ville":"http://www.lebel-sur-quevillon.com/","telephone":"819-755-3274","telephone2":"","telephone3":"819-755-3274","adresse":"1019 boul Quévillon,","codepostal2":"J0Y 1X0","region":1,"codepostal":"J0Y1X0","longitude":-76.979098,"latitude":49.041975},{"_id":84,"nom":"Siscoe (Val d'Or)","url_golf":"","points":4,"prive":false,"depuis":1936,"municipal":"Sullivan","url_ville":"http://pwp.lino.com/munisul/","telephone":"819-824-4631","telephone2":"","telephone3":"","adresse":"472 chemin Siscoe","codepostal2":"J0Y 2N0","region":1,"codepostal":"J0Y2N0","longitude":-77.875535,"latitude":48.139938},{"_id":85,"nom":"Ville-Marie","url_golf":"","points":1,"prive":false,"depuis":1970,"municipal":"Ville-Marie","url_ville":"http://www.temiscamingue.net/decouvrir/municipalite/ville-marie.html","telephone":"819-629-2122","telephone2":"","telephone3":"","adresse":"1016 du Golf CP 128","codepostal2":"J0Z 3W0","region":1,"codepostal":"J0Z3W0","longitude":-79.43458,"latitude":47.290583},{"_id":86,"nom":"Embo","url_golf":"","points":"E","prive":false,"depuis":1970,"municipal":"Rouyn-Noranda","url_ville":"http://www.ville.rouyn-noranda.qc.ca/","telephone":"819-797-0211","telephone2":"","telephone3":"819-797-0211","adresse":"321 boul d'Alembert, D'Alembert","codepostal2":"J9X 5A9","region":1,"codepostal":"J9X5A9","longitude":-79.04,"latitude":48.327096},{"_id":87,"nom":"Témiscaming","url_golf":"","points":"E","prive":false,"depuis":1941,"municipal":"Témiscaming","url_ville":"http://www.temiscaming.net/","telephone":"819-627-9758","telephone2":"","telephone3":"","adresse":"Chemin du Cimetière","codepostal2":"J0Z 3R0","region":1,"codepostal":"J0Z3R0","longitude":-79.09,"latitude":46.705},{"_id":88,"nom":"Royal Estrie","url_golf":"http://www.royalestrie.com/","points":44,"prive":false,"depuis":1953,"municipal":"Asbestos","url_ville":"http://www.ville.asbestos.qc.ca/","telephone":"888-377-5266","telephone2":"819-879-7782","telephone3":"819-879-5266","adresse":"375, Chemin du Golf","codepostal2":"J1T 3M7","region":5,"codepostal":"J1T3M7","longitude":-71.933155,"latitude":45.785422},{"_id":89,"nom":"Château Bromont","url_golf":"http://www.chateaubromont.com/","points":33,"prive":false,"depuis":1965,"municipal":"Bromont","url_ville":"http://www.bromont.com/","telephone":"888-276-6668","telephone2":"","telephone3":"877-534-1199","adresse":"90, rue Stanstead","codepostal2":"J2L 1K6","region":5,"codepostal":"J2L1K6","longitude":-72.641687,"latitude":45.308791},{"_id":90,"nom":"Coaticook","url_golf":"http://www.clubdegolfcoaticook.ca/","points":11,"prive":false,"depuis":1961,"municipal":"Coaticook","url_ville":"http://www.ville.coaticook.qc.ca/","telephone":"819-849-4988","telephone2":"","telephone3":"819-849-9876","adresse":"660 Merrill","codepostal2":"J1A 1X4","region":5,"codepostal":"J1A1X4","longitude":-71.8132,"latitude":45.11375},{"_id":91,"nom":"Cowansville","url_golf":"http://www.golfcowansville.com/","points":256,"prive":false,"depuis":1964,"municipal":"Cowansville","url_ville":"http://www.ville.cowansville.qc.ca/","telephone":"800-574-7997","telephone2":"450-263-3131","telephone3":"450-263-3131","adresse":"225, rue du Golf","codepostal2":"J2K 3H1","region":5,"codepostal":"J2K3H1","longitude":-72.821846,"latitude":45.220561},{"_id":92,"nom":"Dufferin Heights","url_golf":"http://www.clubdufferinheights.com/","points":60,"prive":false,"depuis":1922,"municipal":"Stanstead","url_ville":"","telephone":"819-876-2113","telephone2":"","telephone3":"819-876-2113","adresse":"4115 Rte 143, Rock Island","codepostal2":"J0B 3E0","region":5,"codepostal":"J0B3E0","longitude":-72.062416,"latitude":45.069035},{"_id":93,"nom":"East Angus","url_golf":"http://www.golfeastangus.ca/","points":5,"prive":false,"depuis":1935,"municipal":"East Angus","url_ville":"http://www.ville.east-angus.qc.ca/","telephone":"819-832-3643","telephone2":"","telephone3":"819-832-3643","adresse":"171 Angus N","codepostal2":"J0B 1R0","region":5,"codepostal":"J0B1R0","longitude":-71.664644,"latitude":45.492172},{"_id":94,"nom":"Farnham","url_golf":"http://www.farnhamgolf.com/","points":"","prive":false,"depuis":1957,"municipal":"Farnham","url_ville":"http://www.villede.farnham.qc.ca/","telephone":"877-293-3164","telephone2":"450-293-3164","telephone3":"450-293-3171","adresse":"55, chemin du Golf","codepostal2":"J2N 2P9","region":5,"codepostal":"J2N2P9","longitude":-72.9517,"latitude":45.25863},{"_id":95,"nom":"Granby St-Paul","url_golf":"http://www.golfgranbyst-paul.com/","points":24,"prive":false,"depuis":1956,"municipal":"Granby","url_ville":"http://www.ville.granby.qc.ca/","telephone":"800-363-1247","telephone2":"","telephone3":"450-378-9848","adresse":"1415 rue Principale","codepostal2":"J2G 8C8","region":5,"codepostal":"J2G8C8","longitude":-72.79536,"latitude":45.4282},{"_id":98,"nom":"Hermitage","url_golf":"","points":0,"prive":false,"depuis":0,"municipal":"Magog","url_ville":"http://www.ville.magog.qc.ca/","telephone":"819-843-6579","telephone2":"","telephone3":"","adresse":"200 Hermitage #31 Rural Route 3","codepostal2":"J1X 3W4","region":5,"codepostal":"J1X3W4","longitude":-72.18661,"latitude":45.228239},{"_id":99,"nom":"Inverness","url_golf":"http://www.golf-inverness.com/","points":37,"prive":false,"depuis":0,"municipal":"Ville de Lac Brôme","url_ville":"","telephone":"800-468-1595","telephone2":"450-242-1595","telephone3":"450-242-1595","adresse":"511 Bondville, Bondville","codepostal2":"J0E 1K0","region":5,"codepostal":"J0E1K0","longitude":-72.550535,"latitude":45.25126},{"_id":100,"nom":"Inverugie","url_golf":"http://www.inverugie.ca/","points":0,"prive":false,"depuis":1976,"municipal":"Georgeville","url_ville":"","telephone":"819-843-7758","telephone2":"","telephone3":"","adresse":"211 McGowan Rd","codepostal2":"J0B 1T0","region":5,"codepostal":"J0B1T0","longitude":-72.242543,"latitude":45.136153},{"_id":101,"nom":"Knowlton","url_golf":"http://knowltongc.ca/","points":"N/A","prive":true,"depuis":1920,"municipal":"Knowlton","url_ville":"","telephone":"450-243-6622","telephone2":"","telephone3":"","adresse":"264 rue Lakeside","codepostal2":"J0E 1K0","region":5,"codepostal":"J0E1K0","longitude":-72.489767,"latitude":45.228964},{"_id":102,"nom":"Lac Brome","url_golf":"http://www.golflacbrome.com/","points":15,"prive":false,"depuis":1997,"municipal":"Ville de Lac Brôme","url_ville":"","telephone":"888-539-0808","telephone2":"450-539-2582","telephone3":"450-539-2582","adresse":"700 Lakeside, Lac Brôme","codepostal2":"J0E 1V0","region":5,"codepostal":"J0E1R0","longitude":-72.500764,"latitude":45.28334},{"_id":103,"nom":"Lac Lyster","url_golf":"","points":4,"prive":false,"depuis":1985,"municipal":"Baldwin Mills","url_ville":"","telephone":"819-849-2845","telephone2":"","telephone3":"819-849-2845","adresse":"1181, chemin des Chalets, Coaticook","codepostal2":"J1A 2S4","region":5,"codepostal":"J1A2S4","longitude":-71.8995,"latitude":45.0138},{"_id":104,"nom":"Lac Mégantic","url_golf":"http://www.clubdegolflacmegantic.com/","points":17,"prive":false,"depuis":1964,"municipal":"Lac Mégantic","url_ville":"http://www.ville.lac-megantic.qc.ca/","telephone":"888-551-4810","telephone2":"819-583-4810","telephone3":"819-583-4810","adresse":"1039 Rte 161, Frontenac","codepostal2":"G6B 2S5","region":5,"codepostal":"G6B2S5","longitude":-70.86538,"latitude":45.5033},{"_id":105,"nom":"Long Champ","url_golf":"http://www.golflongchamp.com/","points":20,"prive":false,"depuis":0,"municipal":"Sherbrooke","url_ville":"http://www.ville.sherbrooke.qc.ca/","telephone":"819-563-9899","telephone2":"","telephone3":"","adresse":"3455, rue du Golf","codepostal2":"J1H 5H1","region":5,"codepostal":"J1H5H1","longitude":-71.9621,"latitude":45.4444},{"_id":106,"nom":"Manoir des Sables","url_golf":"http://www.manoirdessables.com/","points":16,"prive":false,"depuis":1989,"municipal":"Orford","url_ville":"http://www.orford.com/ete_fr/la_montagne/club_de_golf_du_mont_orford.php","telephone":"819-847-4747","telephone2":"819-847-3519","telephone3":"877-845-5344","adresse":"90 av des Jardins, Canton Orford","codepostal2":"J1X 6M6","region":5,"codepostal":"J1X6M6","longitude":-72.16455,"latitude":45.3164},{"_id":107,"nom":"Milby","url_golf":"http://www.golfmilby.com/","points":99,"prive":false,"depuis":1963,"municipal":"Lennoxville","url_ville":"","telephone":"819-562-4260","telephone2":"","telephone3":"819-562-4260","adresse":"2200 ch Bowers","codepostal2":"J1M 1Z6","region":5,"codepostal":"J1M1Z6","longitude":-71.8217,"latitude":45.3244},{"_id":108,"nom":"Mille Vert (Le)","url_golf":"","points":0,"prive":false,"depuis":0,"municipal":"St-Paul-d'Abbotsford","url_ville":"","telephone":"450-379-2016","telephone2":"","telephone3":"","adresse":"1880 rue Principale","codepostal2":"J0E 1A0","region":5,"codepostal":"J0E1A0","longitude":-72.848217,"latitude":45.42838},{"_id":109,"nom":"Miner","url_golf":"http://www.golfminer.ca/","points":0,"prive":false,"depuis":1913,"municipal":"Granby","url_ville":"http://www.ville.granby.qc.ca/","telephone":"450-372-4462","telephone2":"","telephone3":"","adresse":"155 Lyman","codepostal2":"J2G 8E5","region":5,"codepostal":"J2G8E5","longitude":-72.72092,"latitude":45.393304},{"_id":110,"nom":"North Hatley (Massawipi)","url_golf":"http://www.clubdegolfnorthhatley.com/","points":8,"prive":false,"depuis":1924,"municipal":"North Hatley","url_ville":"","telephone":"819-842-2463","telephone2":"","telephone3":"","adresse":"1140, chemin Massawippi","codepostal2":"J0B 2C0","region":5,"codepostal":"J0B2C0","longitude":-71.975856,"latitude":45.266536},{"_id":111,"nom":"Old Lennoxville","url_golf":"http://www.golf.ubishops.ca/home.html","points":3,"prive":false,"depuis":1897,"municipal":"Lennoxville","url_ville":"http://www.ville.sherbrooke.qc.ca/","telephone":"819-562-4922","telephone2":"","telephone3":"","adresse":"Rue Winder","codepostal2":"J1M 1L4","region":5,"codepostal":"J1M1L4","longitude":-71.8478,"latitude":45.3599},{"_id":112,"nom":"Mont Orford","url_golf":"http://www.orford.com/","points":54,"prive":false,"depuis":0,"municipal":"Magog","url_ville":"http://www.ville.magog.qc.ca/","telephone":"800-567-2772","telephone2":"819-843-5688","telephone3":"819-843-5688","adresse":"3074, Chemin du Parc","codepostal2":"J1X 3W7","region":5,"codepostal":"J1X3W7","longitude":-72.18775,"latitude":45.320409},{"_id":113,"nom":"Owl's Head","url_golf":"http://www.owlshead.com/","points":365,"prive":false,"depuis":1992,"municipal":"Mansonville","url_ville":"","telephone":"800-363-3342","telephone2":"450-292-3666","telephone3":"450-292-3666","adresse":"187 Owl's Head Vl Perk, Brôme","codepostal2":"J0E 1X0","region":5,"codepostal":"J0E1X0","longitude":-72.317333,"latitude":45.066004},{"_id":114,"nom":"Parcours du Vieux Village","url_golf":"http://www.international-golf.com/vieuxvillage/","points":34,"prive":false,"depuis":0,"municipal":"Bromont","url_ville":"http://www.bromont.com/","telephone":"888-793-3392","telephone2":"450-534-1166","telephone3":"450-534-1166","adresse":"50, rue du Bourgmestre","codepostal2":"J2L 2R8","region":5,"codepostal":"J2L2R8","longitude":-72.6644,"latitude":45.32},{"_id":115,"nom":"Prince de Galles","url_golf":"http://www.golfprincedegalles.com/","points":0,"prive":false,"depuis":2001,"municipal":"Sherbrooke","url_ville":"http://www.ville.sherbrooke.qc.ca/","telephone":"819-573-5535","telephone2":"","telephone3":"819-573-5535","adresse":"2549 ch des Écossais, Bromptonville","codepostal2":"J0B 1H0","region":5,"codepostal":"J0B1H0","longitude":-71.946,"latitude":45.4506},{"_id":116,"nom":"Richmond Melbourne","url_golf":"","points":5,"prive":false,"depuis":1930,"municipal":"Richmond","url_ville":"http://www.ville.richmond.qc.ca/","telephone":"819-826-3411","telephone2":"","telephone3":"","adresse":"75 Belmont, Richelieu","codepostal2":"J0B 2H0","region":5,"codepostal":"J0B2H0","longitude":-72.15288,"latitude":45.6534},{"_id":117,"nom":"Rocher (Le)","url_golf":"http://www.golflerocher.com/","points":73,"prive":false,"depuis":1989,"municipal":"Roxton-Pond","url_ville":"","telephone":"888-850-5888","telephone2":"450-777-5888","telephone3":"","adresse":"821, Rang 4, Roxton Pond","codepostal2":"J0E 1Z0","region":5,"codepostal":"J0E1Z0","longitude":-72.63117,"latitude":45.5082},{"_id":118,"nom":"Rochers Bleus","url_golf":"http://www.lesrochersbleus.com/","points":40,"prive":false,"depuis":1969,"municipal":"Sutton","url_ville":"","telephone":"800-361-2468","telephone2":"450-538-2324","telephone3":"450-538-2324","adresse":"550, Route 139 Nord RR 4","codepostal2":"J0E 2K0","region":5,"codepostal":"J0E2K0","longitude":-72.6271,"latitude":45.129031},{"_id":119,"nom":"Royal Bromont","url_golf":"http://www.royalbromont.com/","points":216,"prive":false,"depuis":1993,"municipal":"Bromont","url_ville":"http://www.bromont.com/","telephone":"888-281-0017","telephone2":"450-534-4653","telephone3":"450-534-4653","adresse":"400, chemin Compton","codepostal2":"J2L 1E9","region":5,"codepostal":"J2L1E9","longitude":-72.6669,"latitude":45.3292},{"_id":120,"nom":"Sherbrooke","url_golf":"http://www.golfsherbrooke.com/","points":8,"prive":false,"depuis":1921,"municipal":"Sherbrooke","url_ville":"http://www.ville.sherbrooke.qc.ca/","telephone":"819-563-4987","telephone2":"","telephone3":"819-569-6534","adresse":"1000, rue Musset","codepostal2":"J1J 3X4","region":5,"codepostal":"J1J3X4","longitude":-71.92846,"latitude":45.41372},{"_id":121,"nom":"Valcourt","url_golf":"http://www.golfvalcourt.ca/","points":13,"prive":false,"depuis":1970,"municipal":"Valcourt","url_ville":"http://ville.valcourt.qc.ca/","telephone":"450-532-3505","telephone2":"","telephone3":"450-532-3505","adresse":"1000, rue Champêtre","codepostal2":"J0E 2L0","region":5,"codepostal":"J0E2L0","longitude":-72.298,"latitude":45.494977},{"_id":122,"nom":"Venise","url_golf":"http://www.clubdegolfvenise.ca/","points":31,"prive":false,"depuis":1977,"municipal":"Magog","url_ville":"http://www.ville.magog.qc.ca/","telephone":"819-864-9891","telephone2":"","telephone3":"819-864-9891","adresse":"1519 ch de la Rivière, RR 5","codepostal2":"J1X 3W5","region":5,"codepostal":"J1X3W5","longitude":-72.066793,"latitude":45.301094},{"_id":124,"nom":"Waterloo","url_golf":"http://www.golfwaterloo.qc.ca/","points":38,"prive":false,"depuis":1962,"municipal":"Waterloo","url_ville":"http://www.ville.waterloo.qc.ca/","telephone":"800-567-1055","telephone2":"","telephone3":"450-539-1055","adresse":"360, chemin Leclerc, Shefford","codepostal2":"J0E 2N0","region":5,"codepostal":"J0E2N0","longitude":-72.48418,"latitude":45.3586},{"_id":126,"nom":"Waterville","url_golf":"http://www.clubdegolfwaterville.com/","points":4,"prive":false,"depuis":1905,"municipal":"Waterville","url_ville":"","telephone":"819-837-2966","telephone2":"","telephone3":"819-837-2966","adresse":"600, rue Compton Est","codepostal2":"J0B 3H0","region":5,"codepostal":"J0B3H0","longitude":-71.88586,"latitude":45.272591},{"_id":127,"nom":"Bosquets (Les)","url_golf":"","points":"E","prive":false,"depuis":0,"municipal":"St-Élie-d'Orford","url_ville":"","telephone":"819-565-2266","telephone2":"","telephone3":"","adresse":"825 ch St Roch,","codepostal2":"J0B 2S0","region":5,"codepostal":"J0B2S0","longitude":-72.038,"latitude":45.37847},{"_id":128,"nom":"Cèdres (Les)","url_golf":"http://golflescedres.com/","points":"E","prive":false,"depuis":1970,"municipal":"Granby","url_ville":"http://www.ville.granby.qc.ca/","telephone":"450-372-0167","telephone2":"450-372-0309","telephone3":"","adresse":"669, rue Coupland","codepostal2":"J0E 1S0","region":5,"codepostal":"J0E1S0","longitude":-72.672489,"latitude":45.3619},{"_id":131,"nom":"Estrie","url_golf":"","points":"E","prive":false,"depuis":0,"municipal":"Sherbrooke","url_ville":"http://www.ville.sherbrooke.qc.ca/","telephone":"819-562-4128","telephone2":"","telephone3":"","adresse":"2690, chemin des Écossais","codepostal2":"J1H 5H1","region":5,"codepostal":"J1H5H1","longitude":-71.940376,"latitude":45.447287},{"_id":132,"nom":"Horizons 2000","url_golf":"","points":"E","prive":false,"depuis":1997,"municipal":"Omerville","url_ville":"http://www.ville.magog.qc.ca/","telephone":"819-868-4040","telephone2":"","telephone3":"","adresse":"900, Boulevard Bourque,","codepostal2":"J1X 3W5","region":5,"codepostal":"J1X3W5","longitude":-72.0996,"latitude":45.2969},{"_id":133,"nom":"InterGolf","url_golf":"http://www.intergolf.qc.ca/","points":"E","prive":false,"depuis":1991,"municipal":"Granby","url_ville":"http://www.ville.granby.qc.ca/","telephone":"819-777-4653","telephone2":"","telephone3":"","adresse":"1586 rue principale (rte 112)","codepostal2":"J2G 8C8","region":5,"codepostal":"J2G8C8","longitude":-72.810511,"latitude":45.424137},{"_id":134,"nom":"Lacs (des)","url_golf":"","points":"E","prive":false,"depuis":0,"municipal":"Bromont","url_ville":"http://www.bromont.com/","telephone":"450-534-0808","telephone2":"","telephone3":"","adresse":"1632, Route Pierre-Laporte","codepostal2":"J2L 2W7","region":5,"codepostal":"J2L2W7","longitude":-72.69923,"latitude":45.3141},{"_id":135,"nom":"Memphrémagog","url_golf":"","points":0,"prive":true,"depuis":2008,"municipal":"Magog","url_ville":"http://www.ville.magog.qc.ca/","telephone":"819-843-8444","telephone2":"","telephone3":"","adresse":"700, Gendron","codepostal2":"J1X 3W2","region":5,"codepostal":"J1X3W2","longitude":-72.207985,"latitude":45.171993},{"_id":136,"nom":"Appalaches (des)","url_golf":"","points":4,"prive":false,"depuis":1992,"municipal":"St-Mathieu-de-Rimouski","url_ville":"","telephone":"418-738-2641","telephone2":"","telephone3":"","adresse":"486 Rg 3E O","codepostal2":"G0L 3T0","region":6,"codepostal":"G0L3T0","longitude":-69.01547,"latitude":48.1772},{"_id":137,"nom":"Fort Prevel","url_golf":"http://www.sepaq.com/","points":34,"prive":false,"depuis":1958,"municipal":"St-Georges-de-Malbaie","url_ville":"","telephone":"418-368-6957","telephone2":"","telephone3":"","adresse":"Gaspé","codepostal2":"G4X 2X1","region":6,"codepostal":"G4X2X1","longitude":-64.260879,"latitude":48.696421},{"_id":138,"nom":"Bic","url_golf":"http://www.clubdegolfbic.com/","points":150,"prive":false,"depuis":1930,"municipal":"Le Bic","url_ville":"","telephone":"418-736-5733","telephone2":"","telephone3":"418-736-5323","adresse":"","codepostal2":"G0L 1B0","region":6,"codepostal":"G0L1B0","longitude":-68.717809,"latitude":48.375395},{"_id":139,"nom":"Boule Rock","url_golf":"http://www.golfboulerock.com/","points":33,"prive":false,"depuis":1919,"municipal":"Métis-sur-Mer","url_ville":"","telephone":"418-936-3407","telephone2":"","telephone3":"","adresse":"164, route 132","codepostal2":"G0J 1S0","region":6,"codepostal":"G0J1S0","longitude":-67.974622,"latitude":48.675922},{"_id":140,"nom":"Cacouna","url_golf":"http://cacouna.net/services.htm#golf","points":0,"prive":false,"depuis":1897,"municipal":"Cacouna","url_ville":"","telephone":"418-862-9649","telephone2":"","telephone3":"418-862-9649","adresse":"287, 132 Route Est RR 1","codepostal2":"G0L 1G0","region":6,"codepostal":"G0L1G0","longitude":-69.498096,"latitude":47.922741},{"_id":141,"nom":"Carleton","url_golf":"http://www.golfcarleton.com/","points":22,"prive":false,"depuis":1928,"municipal":"Carleton","url_ville":"http://www.carletonsurmer.com/","telephone":"418-364-3434","telephone2":"","telephone3":"","adresse":"482, boulevard Perron","codepostal2":"G0C 1J0","region":6,"codepostal":"G0C1J0","longitude":-66.091175,"latitude":48.095394},{"_id":142,"nom":"Cascade","url_golf":"http://www.cascadegolfandtennis.com/","points":0,"prive":false,"depuis":0,"municipal":"Métis-sur-mer","url_ville":"","telephone":"N/D","telephone2":"","telephone3":"418-936-3464","adresse":"7, McNider","codepostal2":"G0J 1W0","region":6,"codepostal":"G0J1W0","longitude":-67.985694,"latitude":48.671098},{"_id":143,"nom":"Empress (L')","url_golf":"http://www.golflempress.ca/","points":21,"prive":false,"depuis":1996,"municipal":"Pointe-au-Père","url_ville":"","telephone":"418-725-4653","telephone2":"","telephone3":"","adresse":"365, rue du Golf","codepostal2":"G5M 1S3","region":6,"codepostal":"G5M1S3","longitude":-68.4448,"latitude":48.5046},{"_id":144,"nom":"Fauvel","url_golf":"http://www.agfauvel.com/","points":74,"prive":false,"depuis":1976,"municipal":"Bonaventure","url_ville":"","telephone":"800-468-1872","telephone2":"418-752-3161","telephone3":"418-752-3161","adresse":"361, 132 Route Est RR 1","codepostal2":"G0C 1E0","region":6,"codepostal":"G0C1E0","longitude":-65.430193,"latitude":48.008745},{"_id":145,"nom":"Gaspésien (Le)","url_golf":"http://www.golflegaspesien.com/","points":12,"prive":false,"depuis":1987,"municipal":"St-Anne-des-Monts","url_ville":"","telephone":"418-763-7416","telephone2":"","telephone3":"","adresse":"40, 28e Rue Ouest","codepostal2":"G4V 2X2","region":6,"codepostal":"G4V2X2","longitude":-66.518526,"latitude":49.11415},{"_id":146,"nom":"Chandler","url_golf":"http://www.clubdegolfchandler.com/fr/index.php","points":1,"prive":false,"depuis":1953,"municipal":"Chandler","url_ville":"","telephone":"418-689-3255","telephone2":"","telephone3":"","adresse":"200, rue commerciale Ouest","codepostal2":"G0C 1K0","region":6,"codepostal":"G0C1K0","longitude":-64.688401,"latitude":48.34467},{"_id":147,"nom":"Matane","url_golf":"http://www.golfmatane.com/","points":7,"prive":false,"depuis":1959,"municipal":"Matane","url_ville":"http://www.ville.matane.qc.ca/","telephone":"418-562-4915","telephone2":"","telephone3":"418-562-7409","adresse":"679, route 195","codepostal2":"G4W 3N1","region":6,"codepostal":"G4W3N1","longitude":-67.53076,"latitude":48.815257},{"_id":148,"nom":"Murdochville","url_golf":"","points":0,"prive":false,"depuis":1974,"municipal":"Murdochville","url_ville":"http://www.murdochville.com/","telephone":"418-784-3833","telephone2":"","telephone3":"418-784-3833","adresse":"route 198","codepostal2":"G0E 1W0","region":6,"codepostal":"G0E1W0","longitude":-65.491079,"latitude":48.961152},{"_id":149,"nom":"Pohénégamook","url_golf":"http://www.golfpohenegamook.com/","points":5,"prive":false,"depuis":0,"municipal":"Pohénégamook","url_ville":"","telephone":"418-859-2012","telephone2":"","telephone3":"","adresse":"325 de la Tête du Lac","codepostal2":"G0L 2T0","region":6,"codepostal":"G0L2T0","longitude":-69.29075,"latitude":47.506751},{"_id":151,"nom":"Revermont (Le)","url_golf":"http://www.golfrevermont.com/","points":90,"prive":false,"depuis":1968,"municipal":"Amqui","url_ville":"","telephone":"418-629-5417","telephone2":"","telephone3":"","adresse":"146, chemin du golf","codepostal2":"G5J 3S5","region":6,"codepostal":"G5J3S5","longitude":-67.395029,"latitude":48.445237},{"_id":152,"nom":"Rivière-du-Loup","url_golf":"http://www.clubdegolfderiviereduloup.com/","points":7,"prive":false,"depuis":1902,"municipal":"Rivière-du-Loup","url_ville":"http://www.ville.riviere-du-loup.qc.ca/","telephone":"418-862-7745","telephone2":"","telephone3":"","adresse":"132 , Route de la montagne, Notre-Dame-du-Portage","codepostal2":"G0L 1Y0","region":6,"codepostal":"G0L1Y0","longitude":-69.580182,"latitude":47.805056},{"_id":153,"nom":"Saint-Pacôme","url_golf":"http://www.golfst-pacome.qc.ca/","points":37,"prive":false,"depuis":1971,"municipal":"St-Pacôme","url_ville":"","telephone":"418-852-2395","telephone2":"","telephone3":"418-852-2395","adresse":"40 William","codepostal2":"G0L 3X0","region":6,"codepostal":"G0L3X0","longitude":-69.955844,"latitude":47.408891},{"_id":154,"nom":"Saules (des)","url_golf":"http://www.golfdessaules.com/","points":12,"prive":false,"depuis":1972,"municipal":"Rimouski","url_ville":"http://www.ville.rimouski.qc.ca/","telephone":"418-723-1929","telephone2":"","telephone3":"","adresse":"285, Montée des Saules","codepostal2":"G5L 8Y9","region":6,"codepostal":"G5L8Y9","longitude":-68.580973,"latitude":48.417211},{"_id":155,"nom":"Vallée du Témiscouata","url_golf":"http://www.clubgolftemis.com","points":14,"prive":false,"depuis":0,"municipal":"St-Louis-du-Ha-Ha","url_ville":"","telephone":"418-854-0539","telephone2":"","telephone3":"418-854-0539","adresse":"90 Rte 185","codepostal2":"G0L 3S0","region":6,"codepostal":"G0L3S0","longitude":-68.951268,"latitude":47.673075},{"_id":156,"nom":"Val Neigette","url_golf":"http://www.libertel.org/valneigette/","points":75,"prive":false,"depuis":1982,"municipal":"Ste-Blandine","url_ville":"","telephone":"418-735-2222","telephone2":"877-735-2299","telephone3":"","adresse":"3, rue du Verglas","codepostal2":"G5L 7C5","region":6,"codepostal":"G5L7C5","longitude":-68.4846,"latitude":48.3627},{"_id":157,"nom":"Iles de la Madeleine","url_golf":"http://www.tourismeilesdelamadeleine.com/magdalen-islands/rd-3-club-de-golf-des-iles.cfm","points":"E","prive":false,"depuis":1970,"municipal":"Iles de la Madeleine","url_ville":"","telephone":"418-986-3665","telephone2":"","telephone3":"","adresse":"321 chemin Boisville, L' Étang du Nord,","codepostal2":"G0B 1E0","region":6,"codepostal":"G0B1E0","longitude":-61.94355,"latitude":47.3626},{"_id":158,"nom":"Rivière-Hatée","url_golf":"http://membres.lycos.fr/rivierehatee/","points":"E","prive":false,"depuis":0,"municipal":"Le Bic","url_ville":"","telephone":"418-736-4653","telephone2":"800-463-5542","telephone3":"","adresse":"2500 Route 132 Est","codepostal2":"G0L 1B0","region":6,"codepostal":"G0L1B0","longitude":-68.712122,"latitude":48.378915},{"_id":159,"nom":"Saint-Jean-de-Dieu","url_golf":"","points":"E","prive":false,"depuis":0,"municipal":"St-Jean-de-Dieu","url_ville":"","telephone":"418-963-4653","telephone2":"","telephone3":"","adresse":"2, rue Sainte-Marie, CP 147","codepostal2":"G0L 3M0","region":6,"codepostal":"G0L3M0","longitude":-69.041133,"latitude":48.007539},{"_id":161,"nom":"Base de Roc","url_golf":"http://www.golfberthier.com/index.asp","points":77,"prive":false,"depuis":1978,"municipal":"Joliette","url_ville":"http://www.ville.joliette.qc.ca/","telephone":"450-759-1818","telephone2":"","telephone3":"450-759-1818","adresse":"2870 Base de Roc","codepostal2":"J6E 7T9","region":7,"codepostal":"J6E7T9","longitude":-73.393135,"latitude":45.987778},{"_id":162,"nom":"Berthier","url_golf":"http://www.golfberthier.com/","points":161,"prive":false,"depuis":1959,"municipal":"Berthierville","url_ville":"http://www.ville.berthierville.qc.ca/","telephone":"514-954-1564","telephone2":"","telephone3":"450-836-4811","adresse":"1480, Grande cote RR 1","codepostal2":"J0K 1A0","region":7,"codepostal":"J0K1A0","longitude":-73.19027,"latitude":46.044285},{"_id":166,"nom":"Crabtree","url_golf":"http://www.golfdecrabtree.com/","points":6,"prive":false,"depuis":1975,"municipal":"Crabtree","url_ville":"http://www.municipalitecrabtree.qc.ca/","telephone":"800-363-1799","telephone2":"450-754-2662","telephone3":"450-754-2662","adresse":"1039, chemin Archambault RR 1","codepostal2":"J0K 1B0","region":7,"codepostal":"J0K1B0","longitude":-73.5154,"latitude":45.9748},{"_id":167,"nom":"Épiphanie (L')","url_golf":"http://golfdelepiphanie.com/","points":78,"prive":false,"depuis":1963,"municipal":"L'Épiphanie","url_ville":"","telephone":"450-588-5475","telephone2":"","telephone3":"","adresse":"200, chemin du Golf","codepostal2":"J5X 2P6","region":7,"codepostal":"J5X2P6","longitude":-73.505,"latitude":45.86766},{"_id":168,"nom":"Joliette","url_golf":"http://www.golfjoliette.ca/index.php?lang=fr","points":389,"prive":false,"depuis":1951,"municipal":"St-Charles Borromée","url_ville":"http://www.st-charles-borromee.org/","telephone":"450-753-9059","telephone2":"450-586-6007","telephone3":"450-753-9052","adresse":"221, chemin du Golf est","codepostal2":"J6L 8L1","region":7,"codepostal":"J6L8L1","longitude":-73.444977,"latitude":46.04893},{"_id":169,"nom":"Lanaudière (De)","url_golf":"http://www.golf-lanaudiere.com/","points":26,"prive":false,"depuis":1997,"municipal":"L'Assomption","url_ville":"http://www.ville.lassomption.qc.ca/","telephone":"450-654-4653","telephone2":"","telephone3":"","adresse":"900 Chemin de la presqu'île","codepostal2":"J5W 3P3","region":7,"codepostal":"J5W3P3","longitude":-73.460426,"latitude":45.799935},{"_id":172,"nom":"Montcalm","url_golf":"http://www.golfmontcalm.qc.ca/","points":165,"prive":false,"depuis":1977,"municipal":"St-Liguori","url_ville":"","telephone":"800-363-2772","telephone2":"","telephone3":"450-834-6981","adresse":"1800, chemin Nadeau RR 1","codepostal2":"J0K 2X0","region":7,"codepostal":"J0K2X0","longitude":-73.622764,"latitude":46.025538},{"_id":174,"nom":"Portage (Le)","url_golf":"http://www.leportage.com/","points":56,"prive":false,"depuis":1963,"municipal":"L'Assomption","url_ville":"http://www.ville.lassomption.qc.ca/","telephone":"450-589-5686","telephone2":"","telephone3":"","adresse":"1020, Chemin du Golf,","codepostal2":"J5W 1K3","region":7,"codepostal":"J5W1K3","longitude":-73.4367,"latitude":45.8327},{"_id":175,"nom":"Rawdon","url_golf":"http://www.clubgolfrawdon.pj.ca/","points":10,"prive":false,"depuis":1923,"municipal":"Rawdon","url_ville":"","telephone":"800-363-8655","telephone2":"450-834-2320","telephone3":"450-834-2320","adresse":"3999, rue Lakeshore Drive RR 1","codepostal2":"J0K 1S0","region":7,"codepostal":"J0K1S0","longitude":-73.699551,"latitude":46.059176},{"_id":176,"nom":"Saint-Didace","url_golf":"","points":4,"prive":false,"depuis":1964,"municipal":"St-Didace","url_ville":"","telephone":"877-835-2496","telephone2":"450-835-2496","telephone3":"","adresse":"971 chemin du Lac Thomas","codepostal2":"J0K 2G0","region":7,"codepostal":"J0K2G0","longitude":-73.23164,"latitude":46.38803},{"_id":177,"nom":"Saint-Donat","url_golf":"http://www.golf-st-donat.com/","points":15,"prive":false,"depuis":1954,"municipal":"St-Donat","url_ville":"","telephone":"819-424-2658","telephone2":"888-424-2658","telephone3":"","adresse":"92 Route 329","codepostal2":"J0T 2C0","region":7,"codepostal":"J0T2C0","longitude":-74.210329,"latitude":46.299212},{"_id":178,"nom":"Saint-Jean-de-Matha","url_golf":"https://www.golfmatha.com/","points":313,"prive":false,"depuis":1972,"municipal":"St-Jean-de-Matha","url_ville":"http://www.municipalitestjeandematha.com/","telephone":"450-886-9321","telephone2":"","telephone3":"","adresse":"2650 Route Louis-Cyr, C.P. 1578, St-Jean de Matha","codepostal2":"J0K 2S0","region":7,"codepostal":"J0K2S0","longitude":-73.56326,"latitude":46.2885},{"_id":179,"nom":"Saint-Michel-des-Saints","url_golf":"http://www.golfstmichel.qc.ca/","points":1,"prive":false,"depuis":0,"municipal":"St-Michel-des-Saints","url_ville":"","telephone":"450-833-5050","telephone2":"","telephone3":"","adresse":"220 Chemin Mont Trinité","codepostal2":"J0K 3B0","region":7,"codepostal":"J0K3B0","longitude":-73.90151,"latitude":46.6793},{"_id":180,"nom":"Sainte-Béatrix","url_golf":"http://www.golfste-beatrix.qc.ca/","points":16,"prive":false,"depuis":0,"municipal":"Ste-Béatrix","url_ville":"","telephone":"877-833-1414","telephone2":"450-883-1414","telephone3":"","adresse":"1124, rang Ste-Cécille","codepostal2":"J0K 1Y0","region":7,"codepostal":"J0K1Y0","longitude":-73.6143,"latitude":46.201},{"_id":184,"nom":"Presqu'île (De la)","url_golf":"","points":"E","prive":false,"depuis":0,"municipal":"L'Assomption","url_ville":"http://www.ville.lassomption.qc.ca/","telephone":"450-589-2882","telephone2":"","telephone3":"","adresse":"935, rang de la Presqu'île,","codepostal2":"J5W 3P4","region":7,"codepostal":"J5W3P4","longitude":-73.47188,"latitude":45.8131},{"_id":186,"nom":"Alpine Inn","url_golf":"http://www.golfalpine.ca/","points":0,"prive":false,"depuis":0,"municipal":"Ste-Adèle","url_ville":"","telephone":"800-361-3303","telephone2":"450-229-6600","telephone3":"","adresse":"1466, rue des Copains","codepostal2":"J8B 2A1","region":8,"codepostal":"J8B2A1","longitude":-74.12304,"latitude":45.98553},{"_id":187,"nom":"Arundel","url_golf":"","points":9,"prive":false,"depuis":1929,"municipal":"Arundel","url_ville":"","telephone":"819-687-8383","telephone2":"","telephone3":"866-662-1212","adresse":"4955, chemin Saint-François, Saint-Laurent","codepostal2":"J0T 1A0","region":8,"codepostal":"J0T1A0","longitude":-74.620149,"latitude":45.978713},{"_id":188,"nom":"Balmoral","url_golf":"http://www.lebalmoral.ca/","points":"N/A","prive":true,"depuis":0,"municipal":"Morin Heights","url_ville":"http://www.morinheights.com/","telephone":"450-226-8989","telephone2":"","telephone3":"","adresse":"100, rue Balmoral RR 1, Morin-Heights","codepostal2":"J0R 1H0","region":8,"codepostal":"J0R1H0","longitude":-74.227667,"latitude":45.89221},{"_id":189,"nom":"Bonniebrook","url_golf":"http://www.golfbonniebrook.com/","points":44,"prive":false,"depuis":1928,"municipal":"St-Colomban","url_ville":"http://www.st-colomban.qc.ca/","telephone":"450-438-4422","telephone2":"450-979-2531","telephone3":"450-438-8307","adresse":"207, côte St Paul","codepostal2":"J5K 1Z6","region":8,"codepostal":"J5K1Z6","longitude":-74.106066,"latitude":45.75387},{"_id":190,"nom":"Capri","url_golf":"","points":11,"prive":false,"depuis":1965,"municipal":"St-Colomban","url_ville":"http://www.st-colomban.qc.ca/","telephone":"450-476-6036","telephone2":"","telephone3":"450-436-5261","adresse":"342, rue Kenna","codepostal2":"J5K 2M8","region":8,"codepostal":"J5K2M8","longitude":-74.14381,"latitude":45.725416},{"_id":192,"nom":"Carling Lake","url_golf":"http://www.golfcarlinglake.com/","points":99,"prive":false,"depuis":1966,"municipal":"Brownsburg","url_ville":"","telephone":"450-533-5333","telephone2":"514-337-1212","telephone3":"514-337-1212","adresse":"327-N Pinehill","codepostal2":"J0V 1A0","region":8,"codepostal":"J0V1A0","longitude":-74.526401,"latitude":45.748241},{"_id":193,"nom":"Chanteclerc (Le)","url_golf":"http://www.golflechantecler.com/","points":41,"prive":false,"depuis":1950,"municipal":"Ste-Adèle","url_ville":"","telephone":"450-476-1339","telephone2":"450-229-3742","telephone3":"","adresse":"2520 Chemin du Club","codepostal2":"J8B 3C3","region":8,"codepostal":"J8B3C3","longitude":-74.164902,"latitude":45.9592},{"_id":194,"nom":"Dunany","url_golf":"http://www.dunanycountryclub.com/","points":"N/A","prive":true,"depuis":1922,"municipal":"Wentworth","url_ville":"http://www.ville.lachute.qc.ca/","telephone":"450-562-4885","telephone2":"","telephone3":"","adresse":"2053 Dunany Road","codepostal2":"J8H 0B5","region":8,"codepostal":"J8H0B5","longitude":-74.333882,"latitude":45.741757},{"_id":195,"nom":"Estérel (L')","url_golf":"http://www.esterel.com/","points":15,"prive":false,"depuis":1960,"municipal":"L'Estérel","url_ville":"","telephone":"450-228-4532","telephone2":"","telephone3":"","adresse":"39 Chemin Fridolin Simard, Ville d'Estérel","codepostal2":"J0T 1L0","region":8,"codepostal":"J0T1L0","longitude":-74.021544,"latitude":46.039727},{"_id":196,"nom":"Grand Duc (Le)","url_golf":"http://www.golflegrandduc.com/","points":12,"prive":false,"depuis":1996,"municipal":"Ste-Sophie","url_ville":"http://www.municipalite.sainte-sophie.qc.ca/","telephone":"800-679-0909","telephone2":"","telephone3":"","adresse":"99 rue Le Grand Duc","codepostal2":"J5J 1G7","region":8,"codepostal":"J5J1G7","longitude":-73.891211,"latitude":45.836663},{"_id":200,"nom":"Lachute","url_golf":"http://www.golflachute.com/","points":217,"prive":false,"depuis":1924,"municipal":"Lachute","url_ville":"http://www.ville.lachute.qc.ca/","telephone":"450-476-0910","telephone2":"","telephone3":"450-562-5228","adresse":"355, avenue Béthany","codepostal2":"J8H 4G9","region":8,"codepostal":"J8H4G9","longitude":-74.3259,"latitude":45.6466},{"_id":202,"nom":"Laurentien","url_golf":"http://www.laurentiangolf.ca/","points":6,"prive":false,"depuis":1920,"municipal":"Ste-Agathe-des-Monts","url_ville":"http://www.sainte-agathe.org/","telephone":"819-326-3022","telephone2":"","telephone3":"","adresse":"21, chemin du Golf","codepostal2":"J8C 2Z7","region":8,"codepostal":"J8C2Z7","longitude":-74.317446,"latitude":46.055811},{"_id":203,"nom":"Maître (Le)","url_golf":"http://www.clublink.ca/","points":"N/A","prive":false,"depuis":2001,"municipal":"Mont-Tremblant","url_ville":"http://www.villedemont-tremblant.qc.ca/","telephone":"800-787-0617","telephone2":"","telephone3":"","adresse":"1443, rue Labelle, St-Jovite","codepostal2":"J8E 2L8","region":8,"codepostal":"J8E2L8","longitude":-74.589636,"latitude":46.143359},{"_id":204,"nom":"Griffon des Sources (Le Manoir)","url_golf":"http://www.golfgriffon.com","points":"","prive":false,"depuis":1967,"municipal":"Mirabel","url_ville":"http://ville.mirabel.qc.ca/","telephone":"450-562-2688","telephone2":"","telephone3":"450-562-1223","adresse":"8701 Chemin des Sources","codepostal2":"J7N 3B1","region":8,"codepostal":"J7N3B1","longitude":-74.233847,"latitude":45.635047},{"_id":207,"nom":"Mirabel","url_golf":"http://www.golfmirabel.com/","points":24,"prive":false,"depuis":1979,"municipal":"Mirabel (St-Janvier)","url_ville":"http://ville.mirabel.qc.ca/","telephone":"450-435-7006","telephone2":"","telephone3":"450-435-7006","adresse":"19150 Charles","codepostal2":"J7J 1P1","region":8,"codepostal":"J7J1P1","longitude":-73.898603,"latitude":45.714525},{"_id":209,"nom":"Mont Gabriel","url_golf":"http://www.montgabriel.com/","points":2,"prive":false,"depuis":1990,"municipal":"Mont-Rolland","url_ville":"","telephone":"800-668-5253","telephone2":"514-861-2852","telephone3":"450-229-3547","adresse":"1699 ch du Mont Gabriel, Sainte-Adèle","codepostal2":"J0R 1L0","region":8,"codepostal":"J0R1L0","longitude":-74.165955,"latitude":45.921886},{"_id":210,"nom":"Sélect","url_golf":"http://golfleselect.com/","points":61,"prive":false,"depuis":2003,"municipal":"Mirabel","url_ville":"http://ville.mirabel.qc.ca/","telephone":"450-566-0370","telephone2":"","telephone3":"","adresse":"1995 Sir Wilfrid Laurier Route 158","codepostal2":"J7N 3B3","region":8,"codepostal":"J7N3B3","longitude":-74.22985,"latitude":45.671014},{"_id":211,"nom":"New-Glasgow","url_golf":"http://www.golfnewglasgow.org/","points":33,"prive":false,"depuis":1966,"municipal":"New-Glasgow","url_ville":"","telephone":"450-430-9644","telephone2":"","telephone3":"","adresse":"360 Beauregard, New Glasgow","codepostal2":"J0R 1J0","region":8,"codepostal":"J0R1J0","longitude":-73.882756,"latitude":45.843928},{"_id":212,"nom":"Nominingue","url_golf":"http://www.hotelgolfnominingue.qc.ca/","points":10,"prive":false,"depuis":1970,"municipal":"Nominingue","url_ville":"","telephone":"819-278-3836","telephone2":"","telephone3":"","adresse":"CP 8 2100 Ch Tour du Lac","codepostal2":"J0W 1R0","region":8,"codepostal":"J0W1R0","longitude":-75.025163,"latitude":46.391257},{"_id":213,"nom":"Oasis (L')","url_golf":"http://www.golfoasis.ca/fr/","points":6,"prive":false,"depuis":1987,"municipal":"Lachute","url_ville":"http://www.ville.lachute.qc.ca/","telephone":"450-562-1094","telephone2":"800-853-2424","telephone3":"450-562-5540","adresse":"424, Route du Nord, Brownsburg","codepostal2":"J8G 1L6","region":8,"codepostal":"J8G1L6","longitude":-74.375881,"latitude":45.676622},{"_id":214,"nom":"Piedmont","url_golf":"http://www.golfpiedmont.ca/","points":75,"prive":false,"depuis":1963,"municipal":"Piedmont","url_ville":"","telephone":"450-227-4653","telephone2":"855-889-2199","telephone3":"450-227-5421","adresse":"201 ch de la Montagne","codepostal2":"J0R 1K0","region":8,"codepostal":"J0R1K0","longitude":-74.134682,"latitude":45.913556},{"_id":215,"nom":"Royal Laurentien","url_golf":"http://www.royallaurentien.com/","points":314,"prive":false,"depuis":1989,"municipal":"St-Faustin","url_ville":"http://www.municipalite.stfaustin.qc.ca/","telephone":"819-326-2347","telephone2":"800-465-3769","telephone3":"","adresse":"2237, chemin Lac Nantel sud, Saint-Faustin-Lac-Carré","codepostal2":"J0T 1J2","region":8,"codepostal":"J0T1J2","longitude":-74.405251,"latitude":46.106684},{"_id":216,"nom":"Ruisseaux (Les)","url_golf":"http://www.golflesruisseaux.ca/","points":1,"prive":false,"depuis":1950,"municipal":"St-Jovite","url_ville":"","telephone":"819-688-2188","telephone2":"","telephone3":"","adresse":"692, Chemin de la Sauvagine, C.P. 1329, Saint-Jovite  Canada","codepostal2":"J0T 1J2","region":8,"codepostal":"J0T1J2","longitude":-74.516659,"latitude":46.107398},{"_id":217,"nom":"Saint-Janvier","url_golf":"http://www.golfstjanvier.cjb.net/","points":6,"prive":false,"depuis":1961,"municipal":"Mirabel (St-Janvier)","url_ville":"http://www.ville.mirabel.qc.ca/","telephone":"450-435-9631","telephone2":"","telephone3":"","adresse":"21081, rue Charles, St-Janvier","codepostal2":"J7J 1P3","region":8,"codepostal":"J7J1P3","longitude":-73.857136,"latitude":45.725581},{"_id":218,"nom":"Saint-Jérôme","url_golf":"http://www.golfstjerome.com/","points":34,"prive":false,"depuis":1973,"municipal":"St-Jérôme (Bellefeuille)","url_ville":"http://www.ville.saint-jerome.qc.ca/","telephone":"450-436-2335","telephone2":"800-363-2500","telephone3":"450-431-5297","adresse":"2019, Mtée Ste-Thérèse","codepostal2":"J5L 2L2","region":8,"codepostal":"J5L2L2","longitude":-74.06476,"latitude":45.827065},{"_id":219,"nom":"Lac Masson","url_golf":"http://www.golflacmasson.com/","points":0,"prive":false,"depuis":1959,"municipal":"Ste-Marguerite-du-Lac- Masson","url_ville":"","telephone":"450-228-3654","telephone2":"","telephone3":"","adresse":"441 B, chemin Masson RR 1","codepostal2":"J0T 1L0","region":8,"codepostal":"J0T1L0","longitude":-74.079952,"latitude":46.047693},{"_id":220,"nom":"Shawbridge","url_golf":"","points":6,"prive":false,"depuis":1927,"municipal":"Prévost","url_ville":"http://www.ville.prevost.qc.ca/","telephone":"450-224-2772","telephone2":"","telephone3":"450-224-2772","adresse":"1162, rue Principale","codepostal2":"J0R 1T0","region":8,"codepostal":"J0R1T0","longitude":-74.07647,"latitude":45.866525},{"_id":221,"nom":"Tremblant","url_golf":"https://transact.tremblant.ca/golf/Igore.aspx?source=GF&lang=fr-CA&campaignid=GolfGolfeur.qc.ca","points":"","prive":false,"depuis":0,"municipal":"Mont-Tremblant","url_ville":"http://www.villedemont-tremblant.qc.ca/","telephone":"888-738-1777","telephone2":"514-764-7546","telephone3":"","adresse":"1000, Chemin des Voyageurs","codepostal2":"J8E 1T1","region":8,"codepostal":"J8E1T1","longitude":-74.596739,"latitude":46.148265},{"_id":224,"nom":"Val des Lacs","url_golf":"http://www.clublink.ca/","points":"","prive":true,"depuis":1959,"municipal":"Ste-Sophie","url_ville":"http://www.municipalite.sainte-sophie.qc.ca/","telephone":"514-438-2731","telephone2":"","telephone3":"","adresse":"300, rue des Cèdres","codepostal2":"J5J 2T6","region":8,"codepostal":"J5J2T6","longitude":-73.94978,"latitude":45.81475},{"_id":225,"nom":"Val-Morin","url_golf":"http://www.golfvalmorin.com/","points":13,"prive":false,"depuis":1922,"municipal":"Val-Morin","url_ville":"","telephone":"877-258-2465","telephone2":"819-322-1501","telephone3":"819-322-6094","adresse":"4500, 5 avenue","codepostal2":"J0T 2R0","region":8,"codepostal":"J0T2R0","longitude":-74.169517,"latitude":45.998572},{"_id":226,"nom":"Vallée de la Lièvre","url_golf":"http://www.golfvalleedelalievre.com/","points":25,"prive":false,"depuis":0,"municipal":"Mont Laurier","url_ville":"http://www.villemontlaurier.qc.ca/","telephone":"819-623-6890","telephone2":"","telephone3":"819-623-6890","adresse":"344, Montée du Golf","codepostal2":"J9L 3G5","region":8,"codepostal":"J9L3G5","longitude":-75.40884,"latitude":46.56578},{"_id":227,"nom":"Vallée de Ste-Adèle","url_golf":"http://www.golflavallee.com/","points":15,"prive":false,"depuis":0,"municipal":"Ste-Adèle","url_ville":"http://ville.sainte-adele.qc.ca/","telephone":"450-229-4653","telephone2":"","telephone3":"","adresse":"465, rue Vallée du Golf","codepostal2":"J8B 1A4","region":8,"codepostal":"J8B1A4","longitude":-74.1182,"latitude":45.95},{"_id":228,"nom":"Hôtel Le Chanteclerc","url_golf":"http://www.lechantecler.com/","points":"E","prive":false,"depuis":0,"municipal":"Ste-Adèle","url_ville":"http://ville.sainte-adele.qc.ca/","telephone":"450-229-3555","telephone2":"","telephone3":"","adresse":"1474, chemin Chantecler, Sainte-Adèle  Canada","codepostal2":"J8B 1A2","region":8,"codepostal":"J8B1A2","longitude":-74.148198,"latitude":45.949852},{"_id":229,"nom":"Manitou","url_golf":"http://www.golfmanitou.com/","points":"E","prive":false,"depuis":2002,"municipal":"Mont-Tremblant","url_ville":"http://www.villedemont-tremblant.qc.ca/","telephone":"819-681-7977","telephone2":"","telephone3":"","adresse":"251, Chemin Clément, , PQ, Canada,","codepostal2":"J8E 1N8","region":8,"codepostal":"J8E1N8","longitude":-74.613261,"latitude":46.16613},{"_id":231,"nom":"Vieille ferme (La)","url_golf":"http://www.golflavieilleferme.com/","points":"E","prive":false,"depuis":0,"municipal":"St-Agathe-Nord","url_ville":"","telephone":"819-324-0138","telephone2":"","telephone3":"","adresse":"5803, Route 117","codepostal2":"J8C 2Z8","region":8,"codepostal":"J8C2Z8","longitude":-74.296396,"latitude":46.064328},{"_id":232,"nom":"Bel Air","url_golf":"http://www.golfbelair.com/","points":18,"prive":false,"depuis":1965,"municipal":"Mirabel (Ste-Scholastique)","url_ville":"http://www.ville.mirabel.qc.ca/","telephone":"450-258-4444","telephone2":"","telephone3":"","adresse":"7410, chemin Verdon, Mirabel","codepostal2":"J7N 2V1","region":9,"codepostal":"J7N2V1","longitude":-74.06617,"latitude":45.612266},{"_id":233,"nom":"Blainvillier","url_golf":"http://www.golfblainvillier.com/","points":"N/A","prive":true,"depuis":0,"municipal":"Blainville","url_ville":"http://www.ville.blainville.qc.ca/","telephone":"450-433-1444","telephone2":"","telephone3":"","adresse":"200, chemin du Blainvillier,  ,","codepostal2":"J7C 4X6","region":9,"codepostal":"J7C4X6","longitude":-73.87379,"latitude":45.71454},{"_id":235,"nom":"Boisé (Le)","url_golf":"http://www.golfleboise.com/","points":167,"prive":false,"depuis":0,"municipal":"Terrebonne (Lachenaie)","url_ville":"http://www.ville.terrebonne.qc.ca/","telephone":"450-492-6071","telephone2":"","telephone3":"","adresse":"689, chemin du Coteau, Lachenaie","codepostal2":"J6W 5H2","region":9,"codepostal":"J6W5H2","longitude":-73.6329,"latitude":45.7171},{"_id":236,"nom":"Cardinal (Le)","url_golf":"http://www.clubdegolflecardinal.com/","points":125,"prive":false,"depuis":1954,"municipal":"Laval (Ste-Dorothée)","url_ville":"http://www.ville.laval.qc.ca/","telephone":"450-627-3077","telephone2":"","telephone3":"","adresse":"1000, avenue des Bois, Sainte-Dorothée","codepostal2":"H7R 1H6","region":9,"codepostal":"H7R1H6","longitude":-73.852,"latitude":45.53688},{"_id":237,"nom":"Champêtre","url_golf":"http://www.golfchampetre.com/","points":10,"prive":false,"depuis":2003,"municipal":"Ste-Anne-des-Plaines","url_ville":"http://www.ville.ste-anne-des-plaines.qc.ca/","telephone":"450-478-1112","telephone2":"","telephone3":"","adresse":"401 Montée Morel","codepostal2":"J0N 1H0","region":9,"codepostal":"J0N1H0","longitude":-73.855762,"latitude":45.795896},{"_id":238,"nom":"Deux-Montagnes","url_golf":"http://www.golfdeux-montagnes.com/","points":40,"prive":false,"depuis":1986,"municipal":"St-Eustache","url_ville":"http://www.ville.saint-eustache.qc.ca/","telephone":"450-472-4653","telephone2":"","telephone3":"","adresse":"555, Rivière du Sud","codepostal2":"J7R 4K3","region":9,"codepostal":"J7R4K3","longitude":-73.9317,"latitude":45.56},{"_id":239,"nom":"Fontainebleau","url_golf":"http://www.clublink.ca/","points":"","prive":true,"depuis":2003,"municipal":"Blainville","url_ville":"http://www.ville.blainville.qc.ca/","telephone":"800-787-0617","telephone2":"","telephone3":"","adresse":"1 Boulevard de Fontainebleau","codepostal2":"J7B 1L4","region":9,"codepostal":"J7B1L4","longitude":-73.819842,"latitude":45.663681},{"_id":240,"nom":"Glendale","url_golf":"http://www.golf-glendale.com/","points":18,"prive":false,"depuis":1960,"municipal":"Mirabel (St-Augustin)","url_ville":"http://www.ville.mirabel.qc.ca/","telephone":"450-475-6208","telephone2":"514-990-8357","telephone3":"","adresse":"9500 Rg Ste Henriette St Aug","codepostal2":"J7N 2A1","region":9,"codepostal":"J7N2A1","longitude":-73.944243,"latitude":45.643726},{"_id":242,"nom":"Le Diamant","url_golf":"http://www.golflediamant.com/index.php?lang=fr","points":"N/A","prive":true,"depuis":1960,"municipal":"Mirabel (Ste-Monique)","url_ville":"http://www.ville.mirabel.qc.ca/","telephone":"450-476-1922","telephone2":"","telephone3":"","adresse":"10466, Montée Clément, Mirabel","codepostal2":"J7J 1Z4","region":9,"codepostal":"J7J1Z4","longitude":-73.99335,"latitude":45.65615},{"_id":243,"nom":"Hillsdale","url_golf":"http://www.hillsdalegolf.com/","points":"N/A","prive":true,"depuis":1953,"municipal":"Mirabel (Ste-Thérèse Ouest)","url_ville":"http://www.ville.mirabel.qc.ca/","telephone":"450-435-6521","telephone2":"","telephone3":"","adresse":"9850, Montée Sainte-Marianne, Mirabel","codepostal2":"J7J 2A8","region":9,"codepostal":"J7J2A8","longitude":-73.901167,"latitude":45.647348},{"_id":245,"nom":"Ilesmère","url_golf":"http://en.clublink.ca/","points":"N/A","prive":true,"depuis":1919,"municipal":"Laval (Ste-Dorothée)","url_ville":"http://www.ville.laval.qc.ca/","telephone":"450-689-4130","telephone2":"","telephone3":"","adresse":"1199 Ch du Bord de l'Eau","codepostal2":"H7Y 1A9","region":9,"codepostal":"H7Y1A9","longitude":-73.845699,"latitude":45.524826},{"_id":248,"nom":"Laval-sur-le-Lac","url_golf":"","points":"N/A","prive":true,"depuis":1917,"municipal":"Laval (Laval-sur-le-Lac)","url_ville":"http://www.ville.laval.qc.ca/","telephone":"450-627-4811","telephone2":"","telephone3":"","adresse":"150 des Peupliers, Laval","codepostal2":"H7R 1G4","region":9,"codepostal":"H7R1G4","longitude":-73.87678,"latitude":45.52649},{"_id":250,"nom":"Lorraine","url_golf":"","points":10,"prive":false,"depuis":1961,"municipal":"Lorraine","url_ville":"http://www.ville.lorraine.qc.ca/","telephone":"450-621-1740","telephone2":"","telephone3":"450-621-1740","adresse":"60, boulevard de Gaulle","codepostal2":"J6Z 2W6","region":9,"codepostal":"J6Z2W6","longitude":-73.77309,"latitude":45.65605},{"_id":251,"nom":"Mascouche","url_golf":"http://www.golfmascouche.qc.ca/","points":47,"prive":false,"depuis":1959,"municipal":"Mascouche","url_ville":"http://ville.mascouche.qc.ca/","telephone":"450-477-0590","telephone2":"","telephone3":"450-477-1411","adresse":"1020, chemin des Anglais","codepostal2":"J7L 3R7","region":9,"codepostal":"J7L3R7","longitude":-73.6411,"latitude":45.744},{"_id":252,"nom":"Mirage (Le)","url_golf":"http://www.golfmirage.ca/","points":"","prive":true,"depuis":1993,"municipal":"Terrebonne","url_ville":"http://www.ville.terrebonne.qc.ca/","telephone":"450-477-4288","telephone2":"","telephone3":"","adresse":"3737 Chemin Martin","codepostal2":"J6W 5C7","region":9,"codepostal":"J6W5C7","longitude":-73.721545,"latitude":45.742311},{"_id":254,"nom":"Oka","url_golf":"","points":0,"prive":false,"depuis":1961,"municipal":"Oka","url_ville":"","telephone":"450-479-8267","telephone2":"","telephone3":"450-479-6905","adresse":"345 St Michel","codepostal2":"J0N 1E0","region":9,"codepostal":"J0N1E0","longitude":-74.098,"latitude":45.46405},{"_id":256,"nom":"Quatre Domaines","url_golf":"http://www.golflesquatredomaines.ca/","points":"","prive":false,"depuis":0,"municipal":"Mirabel","url_ville":"http://www.ville.mirabel.qc.ca/","telephone":"450-434-0048","telephone2":"","telephone3":"450-434-0048","adresse":"18400, chemin Notre-Dame","codepostal2":"J7J 2A6","region":9,"codepostal":"J7J2A6","longitude":-73.91829,"latitude":45.67},{"_id":259,"nom":"Rosemère","url_golf":"http://www.golfrosemere.ca/","points":"N/A","prive":true,"depuis":1922,"municipal":"Rosemère","url_ville":"http://www.ville.rosemere.qc.ca/","telephone":"450-437-7555","telephone2":"","telephone3":"","adresse":"282, boulevard Labelle,","codepostal2":"J7A 2H6","region":9,"codepostal":"J7A2H6","longitude":-73.807,"latitude":45.6312},{"_id":260,"nom":"Saint-André","url_golf":"","points":31,"prive":false,"depuis":1927,"municipal":"St-André d'Argenteuil","url_ville":"","telephone":"450-537-3533","telephone2":"450-476-0911","telephone3":"","adresse":"137, La Seigneurie","codepostal2":"J0V 1X0","region":9,"codepostal":"J0V1X0","longitude":-74.34,"latitude":45.53437},{"_id":263,"nom":"Sainte-Rose","url_golf":"http://www.golfsterose.groupebeaudet.com/","points":98,"prive":false,"depuis":1996,"municipal":"Laval (Ste-Rose)","url_ville":"","telephone":"450-628-6072","telephone2":"","telephone3":"","adresse":"1400 Mattawa Boul.","codepostal2":"H7P 5W7","region":9,"codepostal":"H7P5W7","longitude":-73.81839,"latitude":45.59432},{"_id":264,"nom":"Saint-François","url_golf":"http://www.golfstfrancois.qc.ca/","points":29,"prive":false,"depuis":1963,"municipal":"Laval (St-François)","url_ville":"http://www.ville.laval.qc.ca/","telephone":"450-666-1062","telephone2":"","telephone3":"","adresse":"3000, boul. des Mille-Îles","codepostal2":"H7J 1G1","region":9,"codepostal":"H7J1G1","longitude":-73.7072,"latitude":45.6691},{"_id":266,"nom":"Terrebonne","url_golf":"http://www.golfterrebonne.ca/","points":116,"prive":false,"depuis":1965,"municipal":"Terrebonne (St-Louis-de-Terre","url_ville":"http://www.ville.terrebonne.qc.ca/","telephone":"450-477-1817","telephone2":"","telephone3":"450-477-1817","adresse":"3555 ch Martin, Mascouche","codepostal2":"J6X 4H4","region":9,"codepostal":"J6X4H4","longitude":-73.73,"latitude":45.74154},{"_id":268,"nom":"U.F.O.","url_golf":"http://www.golfufo.com/","points":"","prive":false,"depuis":1972,"municipal":"Laval (Fabreville)","url_ville":"http://www.ville.laval.qc.ca/","telephone":"514-627-1214","telephone2":"","telephone3":"","adresse":"4600, boul. Dagenais Ouest","codepostal2":"H7R 1L5","region":9,"codepostal":"H7R1L5","longitude":-73.84937,"latitude":45.549},{"_id":270,"nom":"Versant (Le)","url_golf":"http://www.golfleversant.com/","points":146,"prive":false,"depuis":1988,"municipal":"Terrebonne","url_ville":"http://www.ville.terrebonne.qc.ca/","telephone":"450-964-2251","telephone2":"","telephone3":"","adresse":"2075 Côte de terrebonne","codepostal2":"J6Y 1H6","region":9,"codepostal":"J6Y1H6","longitude":-73.705044,"latitude":45.7},{"_id":274,"nom":"Victorien","url_golf":"http://www.golflevictorien.com/","points":154,"prive":false,"depuis":1998,"municipal":"Mirabel","url_ville":"http://www.ville.mirabel.qc.ca/","telephone":"514-990-9018","telephone2":"","telephone3":"514-990-9018","adresse":"7625 Arthur Sauve","codepostal2":"J7N 2R6","region":9,"codepostal":"J7N2R6","longitude":-74.11838,"latitude":45.639698},{"_id":280,"nom":"Domaine (Le)","url_golf":"","points":10,"prive":false,"depuis":1970,"municipal":"St-Boniface-de-Shawinigan","url_ville":"","telephone":"819-535-3925","telephone2":"","telephone3":"","adresse":"1095, rue Principale RR 2","codepostal2":"G0X 2L0","region":10,"codepostal":"G0X2L0","longitude":-72.823,"latitude":46.4885},{"_id":281,"nom":"Grand-Mère","url_golf":"http://www.golfgrandmere.com/","points":68,"prive":false,"depuis":1910,"municipal":"Shawinigan (Grand-Mère)","url_ville":"","telephone":"819-538-3560","telephone2":"","telephone3":"819-538-3560","adresse":"1, Chemin du Golf, Po Box: 172","codepostal2":"G9T 5K8","region":10,"codepostal":"G9T5K8","longitude":-72.69,"latitude":46.622},{"_id":282,"nom":"Ki-8-Eb","url_golf":"http://www.ki-8-eb.com/","points":115,"prive":false,"depuis":1923,"municipal":"Trois-Rivières","url_ville":"http://www.v3r.net/","telephone":"819-375-4764","telephone2":"","telephone3":"","adresse":"8,200 boul. des Forges","codepostal2":"G9A 5H5","region":10,"codepostal":"G9A5H5","longitude":-72.6197,"latitude":46.385},{"_id":283,"nom":"La Tuque","url_golf":"","points":8,"prive":false,"depuis":1959,"municipal":"La Tuque","url_ville":"","telephone":"819-523-3122","telephone2":"","telephone3":"","adresse":"35 Rue Beaumont","codepostal2":"G9X 3P6","region":10,"codepostal":"G9X3P6","longitude":-72.7906,"latitude":47.4354},{"_id":284,"nom":"Laurentides (Le)","url_golf":"http://www.lelaurentides.com/","points":7,"prive":false,"depuis":0,"municipal":"Shawinigan (St-Gérard-des- La","url_ville":"http://www.ville.shawinigan.qc.ca/","telephone":"819-539-9907","telephone2":"","telephone3":"","adresse":"651, chemin des Bouleaux","codepostal2":"G9R 1T1","region":10,"codepostal":"G9R1T1","longitude":-72.823,"latitude":46.60116},{"_id":285,"nom":"Links-O-Loup","url_golf":"http://www.golflouiseville.com/","points":23,"prive":false,"depuis":1961,"municipal":"Louiseville","url_ville":"","telephone":"819-228-3951","telephone2":"","telephone3":"","adresse":"580 Chemin du Golf","codepostal2":"J5V 2L6","region":10,"codepostal":"J5V2L6","longitude":-72.96846,"latitude":46.26977},{"_id":286,"nom":"Marthelinois","url_golf":"http://www.golfmarthelinois.com/","points":26,"prive":false,"depuis":0,"municipal":"Ste-Marthe-du-Cap","url_ville":"","telephone":"819-697-1214","telephone2":"","telephone3":"819-697-1214","adresse":"1000, Montée Sainte-Marthe, Trois-Rivières","codepostal2":"G8V 2P7","region":10,"codepostal":"G8V2P7","longitude":-72.50118,"latitude":46.3835},{"_id":287,"nom":"Mémorial","url_golf":"http://www.golflememorial.com/Default.aspx?idPage=1","points":121,"prive":false,"depuis":1962,"municipal":"Shawinigan (Shawinigan-Sud)","url_ville":"http://www.ville.shawinigan.qc.ca/","telephone":"819-537-0500","telephone2":"","telephone3":"","adresse":"3005 Rg St Mathieu E","codepostal2":"G9N 6T5","region":10,"codepostal":"G9N6T5","longitude":-72.7066,"latitude":46.54351},{"_id":288,"nom":"Métabéroutin","url_golf":"http://www.golfmetaberoutin.com/","points":29,"prive":false,"depuis":1925,"municipal":"Trois-Rivières","url_ville":"http://www.v3r.net/","telephone":"819-375-4242","telephone2":"","telephone3":"819-375-4242","adresse":"C.P. 5, Ile St-Christophe","codepostal2":"G9A 5E3","region":10,"codepostal":"G9A5E3","longitude":-72.534742,"latitude":46.361678},{"_id":289,"nom":"Moulin (Du)","url_golf":"http://www.golfdumoulin.ca/","points":48,"prive":false,"depuis":1970,"municipal":"St-Louis-de-France","url_ville":"","telephone":"819-378-2819","telephone2":"","telephone3":"","adresse":"841 Chemin des pins, Trois-Rivières","codepostal2":"G8W 2K1","region":10,"codepostal":"G8W2K1","longitude":-72.607484,"latitude":46.39022},{"_id":290,"nom":"Sainte-Flore","url_golf":"http://golfsteflore.com/","points":54,"prive":false,"depuis":1972,"municipal":"Shawinigan (Grand-Mère)","url_ville":"","telephone":"819-533-4555","telephone2":"","telephone3":"","adresse":"5401, 35e Rue","codepostal2":"G9T 3N5","region":10,"codepostal":"G9T3N5","longitude":-72.74022,"latitude":46.61509},{"_id":291,"nom":"Saint-Rémi (Le) (Tawachiche)","url_golf":"http://www.golfstremy.com/","points":16,"prive":false,"depuis":1970,"municipal":"Lac aux Sables","url_ville":"http://www.lac-aux-sables.qc.ca/","telephone":"418-289-2644","telephone2":"","telephone3":"","adresse":"660 St Charles, Sainte-Thècle","codepostal2":"G0X 3G0","region":10,"codepostal":"G0X3G0","longitude":-72.45099,"latitude":46.8546},{"_id":292,"nom":"Vieilles Forges (Les)","url_golf":"http://golf-vieilles-forges.qc.ca/","points":16,"prive":false,"depuis":1974,"municipal":"Trois-Rivières","url_ville":"http://www.v3r.net/","telephone":"819-379-7477","telephone2":"","telephone3":"","adresse":"1975, rue Grimard","codepostal2":"G8Y 4N3","region":10,"codepostal":"G8Y4N3","longitude":-72.64967,"latitude":46.384},{"_id":294,"nom":"Pointe-du-Lac","url_golf":"http://www.golfpointedulac.com/","points":"E","prive":false,"depuis":2002,"municipal":"Trois-Rivières","url_ville":"http://www.v3r.net/","telephone":"819-377-4653","telephone2":"","telephone3":"","adresse":"201, chemin du Lac-des-Pins","codepostal2":"G0X 1Z0","region":10,"codepostal":"G0X1Z0","longitude":-72.672,"latitude":46.325},{"_id":295,"nom":"Rivières (Les)","url_golf":"http://golflesrivieres.ca/","points":"E","prive":false,"depuis":2001,"municipal":"Trois-Rivières","url_ville":"http://www.v3r.net/","telephone":"819-378-7871","telephone2":"","telephone3":"","adresse":"6500, boulevard des Forges","codepostal2":"G8Y 7E3","region":10,"codepostal":"G8Y7E3","longitude":-72.6018,"latitude":46.36784},{"_id":296,"nom":"Arpents Verts (Les)","url_golf":"","points":"","prive":false,"depuis":1979,"municipal":"St-Mathieu-de-Beloeil","url_ville":"","telephone":"450-464-3322","telephone2":"","telephone3":"","adresse":"5000 ch des Grands Coteaux","codepostal2":"J3G 2C9","region":12,"codepostal":"J3G2C9","longitude":-73.271459,"latitude":45.605459},{"_id":297,"nom":"Baie Missisquoi","url_golf":"http://www.golfbaiemissisquoi.com/","points":2,"prive":false,"depuis":1961,"municipal":"Venise-en-Québec","url_ville":"","telephone":"800-363-1420","telephone2":"450-244-5932","telephone3":"800-363-1420","adresse":"311, avenue Venise Ouest RR 1","codepostal2":"J0J 2K0","region":12,"codepostal":"J0J2K0","longitude":-73.16,"latitude":45.08},{"_id":299,"nom":"Belle Vue","url_golf":"http://www.golfbellevue.com/","points":17,"prive":false,"depuis":1929,"municipal":"Ville de Léry","url_ville":"","telephone":"450-692-8201","telephone2":"","telephone3":"450-692-8201","adresse":"880, boul. de Léry","codepostal2":"J6N 1B7","region":12,"codepostal":"J6N1B7","longitude":-73.79,"latitude":45.345},{"_id":301,"nom":"Beloeil","url_golf":"http://golfbeloeil.qc.ca/","points":"N/A","prive":true,"depuis":1923,"municipal":"Beloeil","url_ville":"http://www.ville.beloeil.qc.ca/","telephone":"450-467-0243","telephone2":"","telephone3":"","adresse":"425 des Chênes,","codepostal2":"J3G 2H7","region":12,"codepostal":"J3G2H7","longitude":-73.21454,"latitude":45.55914},{"_id":302,"nom":"Boucherville","url_golf":"http://www.golfboucherville.com/","points":21,"prive":false,"depuis":1959,"municipal":"Longueuil (Boucherville)","url_ville":"http://www.ville.longueuil.qc.ca/","telephone":"450-655-9063","telephone2":"","telephone3":"450-655-9063","adresse":"300, boulevard de Mortagne, Boucherville","codepostal2":"J4B 1B5","region":12,"codepostal":"J4B1B5","longitude":-73.438143,"latitude":45.582081},{"_id":303,"nom":"Brossard","url_golf":"http://www.golfbrossard.ca/","points":11,"prive":false,"depuis":1963,"municipal":"Longueuil (Brossard)","url_ville":"http://www.ville.longueuil.qc.ca/","telephone":"450-445-9394","telephone2":"","telephone3":"450-445-9394","adresse":"6000, chemin du Golf","codepostal2":"J4Z 3S8","region":12,"codepostal":"J4Z3S8","longitude":-73.43,"latitude":45.45361},{"_id":304,"nom":"Candiac","url_golf":"http://golfcandiac.qc.ca/","points":37,"prive":false,"depuis":1960,"municipal":"Candiac","url_ville":"http://www.ville.candiac.qc.ca/","telephone":"450-659-9163","telephone2":"","telephone3":"450-659-9163","adresse":"45, chemin d'Auteuil","codepostal2":"J5R 2C8","region":12,"codepostal":"J5R2C8","longitude":-73.497,"latitude":45.383},{"_id":305,"nom":"Caughnawaga","url_golf":"http://www.caughnawagagolfclub.com/","points":7,"prive":false,"depuis":1968,"municipal":"Kahnawake","url_ville":"","telephone":"450-632-7163","telephone2":"","telephone3":"450-632-7163","adresse":"","codepostal2":"J0L 1B0","region":12,"codepostal":"J0L1B0","longitude":-73.665,"latitude":45.383},{"_id":307,"nom":"Chambly","url_golf":"http://www.chamblygolf.com/","points":7,"prive":false,"depuis":1930,"municipal":"Chambly","url_ville":"http://www.ville.chambly.qc.ca/","telephone":"450-658-6812","telephone2":"","telephone3":"450-658-0943","adresse":"560, rue Martel","codepostal2":"J3L 1V5","region":12,"codepostal":"J3L1V5","longitude":-73.297,"latitude":45.46},{"_id":309,"nom":"Continental","url_golf":"http://www.golfcontinental.ca/","points":"","prive":false,"depuis":0,"municipal":"Ste-Victoire-de-Sorel","url_ville":"","telephone":"450-742-0552","telephone2":"","telephone3":"450-742-0552","adresse":"1567, chemin des Patriotes RR 1","codepostal2":"J0G 1T0","region":12,"codepostal":"J0G1T0","longitude":-73.1285,"latitude":45.98},{"_id":312,"nom":"Country Club de Montréal","url_golf":"http://www.countryclubmontreal.com/","points":"N/A","prive":true,"depuis":1911,"municipal":"Longueuil (St-Lambert)","url_ville":"http://www.ville.longueuil.qc.ca/","telephone":"450-671-6181","telephone2":"","telephone3":"","adresse":"","codepostal2":"","region":12,"codepostal":"J0K1Y0","longitude":-73.50138,"latitude":45.483},{"_id":313,"nom":"Domaine de Rouville","url_golf":"http://www.domainederouville.com/fr/","points":77,"prive":false,"depuis":1980,"municipal":"St-Jean-Baptiste","url_ville":"http://municipalite.saint-jean-baptiste.qc.ca/","telephone":"450-464-3903","telephone2":"","telephone3":"","adresse":"4230, rang nord","codepostal2":"J0L 2B0","region":12,"codepostal":"J0L2B0","longitude":-73.15027,"latitude":45.51},{"_id":316,"nom":"Hemmingford","url_golf":"http://www.golfhemmingford.com/","points":34,"prive":false,"depuis":1965,"municipal":"Hemmingford","url_ville":"","telephone":"450-247-2412","telephone2":"","telephone3":"514-866-6004","adresse":"313 Rte 219","codepostal2":"J0L 1H0","region":12,"codepostal":"J0L1H0","longitude":-73.601747,"latitude":45.036},{"_id":318,"nom":"Îles (Des)","url_golf":"http://www.golfdesiles.com/","points":79,"prive":false,"depuis":1990,"municipal":"Boucherville","url_ville":"http://www.ville.longueuil.qc.ca/","telephone":"450-670-4653","telephone2":"","telephone3":"","adresse":"255, Île Sainte-Marguerite","codepostal2":"J4B 8R2","region":12,"codepostal":"J4B8R2","longitude":-73.47334,"latitude":45.599},{"_id":319,"nom":"International 2000","url_golf":"http://www.international-golf.com/2000/","points":63,"prive":false,"depuis":0,"municipal":"St-Bernard-de-Lacolle","url_ville":"","telephone":"450-246-3626","telephone2":"","telephone3":"450-246-3626","adresse":"320, rue du Golf RR 1","codepostal2":"J0J 1V0","region":12,"codepostal":"J0J1V0","longitude":-73.4216,"latitude":45.012},{"_id":320,"nom":"Kanawake","url_golf":"http://www.kanawakigolf.com/","points":"N/A","prive":true,"depuis":1912,"municipal":"Kahnawake","url_ville":"","telephone":"450-632-7200","telephone2":"","telephone3":"","adresse":"","codepostal2":"J0L 1B0","region":12,"codepostal":"J0L1B0","longitude":-73.663234,"latitude":45.400868},{"_id":321,"nom":"Lafleur","url_golf":"","points":0,"prive":false,"depuis":1979,"municipal":"Kahnawake","url_ville":"","telephone":"450-638-0274","telephone2":"","telephone3":"","adresse":"P.O. Box 132, Kanawake","codepostal2":"J0L 1B0","region":12,"codepostal":"J0L1B0","longitude":-73.666,"latitude":45.373},{"_id":322,"nom":"Laprairie","url_golf":"http://www.golflaprairie.com/","points":11,"prive":false,"depuis":1965,"municipal":"Laprairie","url_ville":"http://www.ville.laprairie.qc.ca/","telephone":"450-659-1908","telephone2":"","telephone3":"450-659-1908","adresse":"Administration, La Prairie","codepostal2":"J5R 1S9","region":12,"codepostal":"J5R1S9","longitude":-73.48,"latitude":45.41967},{"_id":323,"nom":"Légendes (Les)","url_golf":"http://www.golfleslegendes.com/","points":41,"prive":false,"depuis":1976,"municipal":"St-Jean-sur-Richelieu (St-Luc","url_ville":"http://www.ville.saint-jean-sur-richelieu.qc.ca/","telephone":"514-877-5566","telephone2":"","telephone3":"","adresse":"400 de la Bergère, St-Jean-Sur-Richelieu","codepostal2":"J0J 2A0","region":12,"codepostal":"J0J2A0","longitude":-73.30245,"latitude":45.365},{"_id":324,"nom":"Madeleine (La)","url_golf":"http://golflamadeleine.qc.ca/","points":"","prive":false,"depuis":1992,"municipal":"Ste-Madeleine","url_ville":"","telephone":"800-561-2246","telephone2":"","telephone3":"","adresse":"3501, montée du 4e rang, Sainte- Madeleine (QC)","codepostal2":"J0H 1S0","region":12,"codepostal":"J0H1S0","longitude":-73.125,"latitude":45.60248},{"_id":327,"nom":"Mont Bruno","url_golf":"","points":"N/A","prive":true,"depuis":1916,"municipal":"Longueuil (St-Bruno)","url_ville":"http://www.ville.longueuil.qc.ca/","telephone":"450-653-2201","telephone2":"","telephone3":"","adresse":"665 Ch Des Vignt","codepostal2":"J3V 4P6","region":12,"codepostal":"J3V4P6","longitude":-73.315,"latitude":45.5267},{"_id":328,"nom":"Napierville","url_golf":"http://www.golfnapierville.ca/","points":32,"prive":false,"depuis":1977,"municipal":"Napierville","url_ville":"","telephone":"450-245-3356","telephone2":"514-877-5544","telephone3":"450-245-3356","adresse":"30, rang Cyr RR 21","codepostal2":"J0J 1L0","region":12,"codepostal":"J0J1L0","longitude":-73.424,"latitude":45.18},{"_id":329,"nom":"Ormstown","url_golf":"http://www.golformstown.com/","points":14,"prive":false,"depuis":1973,"municipal":"Ormstown","url_ville":"","telephone":"450-829-2061","telephone2":"","telephone3":"877-743-7776","adresse":"673 Rang Dumas","codepostal2":"J0S 1K0","region":12,"codepostal":"J0S1K0","longitude":-73.9777,"latitude":45.053287},{"_id":330,"nom":"Parcours de golf Riviéra","url_golf":"http://www.golfleriviera.com/","points":23,"prive":false,"depuis":0,"municipal":"Longueuil (St-Bruno)","url_ville":"http://www.ville.longueuil.qc.ca/","telephone":"450-653-5004","telephone2":"","telephone3":"","adresse":"4020,  de la Fougère, St-Bruno de Montarville,","codepostal2":"J3V 6K2","region":12,"codepostal":"J3V6K2","longitude":-73.3219,"latitude":45.5111},{"_id":331,"nom":"Parcours du Cerf","url_golf":"http://www.parcoursducerf.com/","points":455,"prive":false,"depuis":1992,"municipal":"Longueuil","url_ville":"http://www.ville.longueuil.qc.ca/","telephone":"450-448-2373","telephone2":"","telephone3":"450-468-1142","adresse":"2500, boulevard Fernand-Lafontaine","codepostal2":"J4N 1M5","region":12,"codepostal":"J4N1M5","longitude":-73.45,"latitude":45.555},{"_id":334,"nom":"Pinegrove","url_golf":"http://www.golfpinegrove.ca/","points":"N/A","prive":true,"depuis":1957,"municipal":"St-Jean-sur-Richelieu (St-Luc","url_ville":"http://www.ville.saint-jean-sur-richelieu.qc.ca/","telephone":"450-658-1791","telephone2":"","telephone3":"","adresse":"200 Ave. des Pins, Saint-Luc","codepostal2":"J2W 2J6","region":12,"codepostal":"J2W2J6","longitude":-73.3642,"latitude":45.3929},{"_id":335,"nom":"Rive Sud","url_golf":"http://www.golfrivesud.com/","points":26,"prive":false,"depuis":1962,"municipal":"St-Basile-le-Grand","url_ville":"","telephone":"450-653-6360","telephone2":"","telephone3":"450-653-2471","adresse":"415 Bella Vista, Saint-Basile-Le-Grand","codepostal2":"J3N 1M4","region":12,"codepostal":"J3N1M4","longitude":-73.30056,"latitude":45.5},{"_id":336,"nom":"Saint-Césaire","url_golf":"http://www.golfsaintcesaire.com/","points":86,"prive":false,"depuis":1989,"municipal":"St-Césaire","url_ville":"","telephone":"888-469-4887","telephone2":"450-469-4887","telephone3":"","adresse":"140, Chemin St-François","codepostal2":"J0L 1T0","region":12,"codepostal":"J0L1T0","longitude":-73.0414,"latitude":45.389},{"_id":337,"nom":"Saint-Jean","url_golf":"http://www.golfstjean.ca/","points":"N/A","prive":true,"depuis":1923,"municipal":"St-Jean-sur-Richelieu","url_ville":"http://www.ville.saint-jean-sur-richelieu.qc.ca/","telephone":"450-346-6814","telephone2":"","telephone3":"","adresse":"320, rue Jacques-Cartier Sud","codepostal2":"J3B 7B2","region":12,"codepostal":"J3B7B2","longitude":-73.25769,"latitude":45.278},{"_id":338,"nom":"Saint-Lambert","url_golf":"http://www.golfstlambert.com/","points":0,"prive":false,"depuis":1929,"municipal":"Longueuil (St-Lambert)","url_ville":"http://www.ville.longueuil.qc.ca/","telephone":"450-671-0462","telephone2":"","telephone3":"","adresse":"325, rue du Golf, Po Box: 95, Saint-Lambert","codepostal2":"J4P 1Z6","region":12,"codepostal":"J4P1Z6","longitude":-73.50252,"latitude":45.50367},{"_id":339,"nom":"Seigneurie St-Hilaire (La)","url_golf":"http://www.golflaseigneurie.ca/","points":119,"prive":false,"depuis":0,"municipal":"Mont St-Hilaire","url_ville":"http://www.ville.mont-saint-hilaire.qc.ca/","telephone":"450-446-0666","telephone2":"","telephone3":"","adresse":"241, rue du Golf","codepostal2":"J3H 5Z7","region":12,"codepostal":"J3H5Z7","longitude":-73.17553,"latitude":45.58712},{"_id":340,"nom":"Sorel-Tracy Les Dunes","url_golf":"http://www.golflesdunes.com/","points":60,"prive":false,"depuis":1952,"municipal":"Sorel-Tracy","url_ville":"http://www.ville.sorel.qc.ca/","telephone":"450-742-4444","telephone2":"","telephone3":"450-743-7922","adresse":"12000, chemin Saint-Roch","codepostal2":"J3R 5E8","region":12,"codepostal":"J3R5E8","longitude":-73.153,"latitude":45.993},{"_id":341,"nom":"Triangle d'Or","url_golf":"http://www.golfvalleedesforts.com/","points":155,"prive":false,"depuis":1970,"municipal":"St-Rémi","url_ville":"","telephone":"514-877-5022","telephone2":"","telephone3":"514-877-5033","adresse":"Rte 221","codepostal2":"J0L 2L0","region":12,"codepostal":"J0L2L0","longitude":-73.5923,"latitude":45.24291},{"_id":342,"nom":"Vallée des Forts","url_golf":"http://www.golfvalleedesforts.com/","points":181,"prive":false,"depuis":0,"municipal":"St-Jean-sur-Richelieu","url_ville":"http://www.ville.saint-jean-sur-richelieu.qc.ca/","telephone":"450-346-6767","telephone2":"514-395-4653","telephone3":"450-346-6090","adresse":"1145 ch du Petit Bernier","codepostal2":"J3B 6Y8","region":12,"codepostal":"J3B6Y8","longitude":-73.3022,"latitude":45.242412},{"_id":343,"nom":"Vallée du Richelieu","url_golf":"http://www.valleedurichelieu.com/","points":"N/A","prive":true,"depuis":1963,"municipal":"Ste-Julie","url_ville":"","telephone":"450-922-1552","telephone2":"","telephone3":"","adresse":"100, rue du golf, Sainte-Julie de Verchères,","codepostal2":"J3E 1Y1","region":12,"codepostal":"J3E1Y1","longitude":-73.28326,"latitude":45.594161},{"_id":345,"nom":"Verchères","url_golf":"http://www.golfvercheres.com/","points":"","prive":false,"depuis":1976,"municipal":"Verchères","url_ville":"http://www.ville.vercheres.qc.ca/","telephone":"450-583-3319","telephone2":"","telephone3":"450-583-3319","adresse":"250, Montée du Moulin RR 1","codepostal2":"J0L 2R0","region":12,"codepostal":"J0L2R0","longitude":-73.3079,"latitude":45.7134},{"_id":352,"nom":"Mohawk Hills","url_golf":"","points":"E","prive":false,"depuis":1980,"municipal":"Kahnawake","url_ville":"","telephone":"450-632-7446","telephone2":"","telephone3":"450-632-7446","adresse":"Profile","codepostal2":"J0L 1B0","region":12,"codepostal":"J0L1B0","longitude":-73.66,"latitude":45.367},{"_id":353,"nom":"Mont St-Grégoire","url_golf":"","points":"E","prive":false,"depuis":1977,"municipal":"Mont St-Grégoire","url_ville":"","telephone":"450-347-2819","telephone2":"","telephone3":"450-347-2819","adresse":"27 4 Rg N, Mont-Saint-Grégoire","codepostal2":"J0J 1K0","region":12,"codepostal":"J0J1K0","longitude":-73.18975,"latitude":45.35},{"_id":354,"nom":"Patriotes (Les)","url_golf":"http://golflespatriotes.com/index.php","points":"E","prive":false,"depuis":1969,"municipal":"St-Ours","url_ville":"","telephone":"450-785-2715","telephone2":"","telephone3":"","adresse":"1889, chemin des Patriotes RR 1, Saint-Ours","codepostal2":"J0G 1P0","region":12,"codepostal":"J0G1P0","longitude":-73.138561,"latitude":45.942},{"_id":355,"nom":"Rougemont","url_golf":"http://www.golfrougemont.com/","points":"E","prive":false,"depuis":0,"municipal":"Rougemont","url_ville":"","telephone":"450-469-5464","telephone2":"","telephone3":"450-469-5464","adresse":"250 Rte 112","codepostal2":"J0L 1M0","region":12,"codepostal":"J0L1M0","longitude":-73.0492,"latitude":45.4349},{"_id":357,"nom":"Sabrevois","url_golf":"http://golfsabrevois.com/","points":"E","prive":false,"depuis":0,"municipal":"Sainte-Anne-de-Sabrevois","url_ville":"","telephone":"450-741-4040","telephone2":"","telephone3":"","adresse":"354 route 133","codepostal2":"J0J 2G0","region":12,"codepostal":"J0J2G0","longitude":-73.232,"latitude":45.241},{"_id":358,"nom":"Beaconsfield","url_golf":"http://www.beaconsfieldgolf.ca/","points":"N/A","prive":true,"depuis":1904,"municipal":"Montréal (Pointe-Claire)","url_ville":"http://www2.ville.montreal.qc.ca/","telephone":"514-695-2661","telephone2":"","telephone3":"","adresse":"49 Golf Ave, Pointe Claire  6","codepostal2":"H9S 4N6","region":11,"codepostal":"H9S4N6","longitude":-73.82879,"latitude":45.436466},{"_id":359,"nom":"Braeside","url_golf":"","points":"N/A","prive":true,"depuis":1897,"municipal":"Montréal (Senneville)","url_ville":"","telephone":"514-457-6020","telephone2":"","telephone3":"","adresse":"6 Sunset Ave. Senneville","codepostal2":"H9X 1S5","region":11,"codepostal":"H9X1S5","longitude":-73.962,"latitude":45.43532},{"_id":360,"nom":"Challenger","url_golf":"http://www.golflechallenger.com/","points":52,"prive":false,"depuis":2002,"municipal":"Montréal (St-Laurent)","url_ville":"http://www2.ville.montreal.qc.ca/","telephone":"514-335-5545","telephone2":"","telephone3":"","adresse":"2505, rue des Nations, Saint-Laurent","codepostal2":"H4R 3C8","region":11,"codepostal":"H4R3C8","longitude":-73.71097,"latitude":45.51246},{"_id":361,"nom":"Como","url_golf":"http://www.comogolf.com/","points":"N/A","prive":true,"depuis":1902,"municipal":"Hudson","url_ville":"http://www.ville.hudson.qc.ca/","telephone":"514-458-9526","telephone2":"","telephone3":"","adresse":"Harwood Bd","codepostal2":"J0P 1H0","region":16,"codepostal":"J0P1H0","longitude":-74.122567,"latitude":45.44568},{"_id":362,"nom":"Dorval","url_golf":"http://www.golfdorval.com/","points":14,"prive":false,"depuis":1982,"municipal":"Montréal (Dorval)","url_ville":"http://www2.ville.montreal.qc.ca/","telephone":"514-631-4653","telephone2":"","telephone3":"514-631-4711","adresse":"1455, avenue Cardinal","codepostal2":"H9P 2N8","region":11,"codepostal":"H9P2N8","longitude":-73.771949,"latitude":45.472019},{"_id":364,"nom":"Dorval Municipal","url_golf":"http://golfmunidorval.com/","points":5,"prive":false,"depuis":1960,"municipal":"Montréal (Dorval)","url_ville":"http://www2.ville.montreal.qc.ca/","telephone":"514-631-4711","telephone2":"","telephone3":"514-631-4711","adresse":"1455, avenue Cardinal","codepostal2":"H9P 2N8","region":11,"codepostal":"H9P2N8","longitude":-73.75892,"latitude":45.45017},